SiteFunctionalLocation,LicenceArea,SiteName,SiteType,SiteVoltage,ESQCROverallRisk,GridRef,SiteAssetCount,PowerTransformerCount,ElectricalAssetCount,CivilAssetCount,Longitude,Latitude,Street,Suburb,TownCity,County,PostCode,YearCommissioned,DateCommissioned,SiteClassification,AssessmentDate,Last_Report,CalculatedResistance,MeasuredResistance(Ohm),Next_AssessmentDate,Easting,Northing,transratingwinter,transratingsummer,reversepower,maxdemandsummer,maxdemandwinter,Spatial Coordinates,local_authority,local_authority_code
EPN-S0000000C1041,Eastern Power Networks (EPN),CLIFF QUAY GRID 132KV,Grid Substation,132,High,TM17074204,73,0,73,0,1.16325674714046,52.0342568413421,,,IPSWICH SOUTH,Suffolk,IP3 0BS,NA,2017-04-01,NA,,NA,NA,,2037-12-12,617070,242040,"78, 78, 78","60, 60, 60",100%,NA,NA,"52.0342568413421,1.16325674714046",Ipswich,E07000202
EPN-S0000000C3027,Eastern Power Networks (EPN),CLACTON GRID 132kV,Grid Substation,132,Very High,TM1917618947,120,0,81,39,1.17921285923585,51.8261259348637,,,GREAT HOLLAND,Essex,CO16 9QG,2000,1960-04-01,COLD,2013-09-05,P-13-2977-01,0.03Ω 0.50Deg,,2025-01-11,619176,218947,"78, 78","60, 60",100%,NA,NA,"51.8261259348637,1.17921285923585",Tendring,E07000076
EPN-S0000000C3044,Eastern Power Networks (EPN),COLCHESTER GRID 132kV,Grid Substation,132,Very High,TM0181824012,139,0,53,86,0.930644018487967,51.8781404070326,HAVEN ROAD,,COLCHESTER EAST,Essex,CO2 8GY,1982,1950-04-01,HOT,2016-08-11,ESL1519024-R01 RA,0.60Ω 0.00Deg,0.22,2027-01-11,601818,224012,"117, 117, 39, 39","90, 90, 30, 30",100%,NA,NA,"51.8781404070326,0.930644018487967",Colchester,E07000071
EPN-S0000000C3048,Eastern Power Networks (EPN),LAWFORD GRID 132kV,Grid Substation,132,Very High,TM0770628547,536,0,425,111,1.0187895235319,51.9166973149882,,,LITTLE BROMLEY,Essex,CO11 2QA,1960,1960-04-01,COLD,2014-04-17,ESL0042-11448,0.10Ω 5.20Deg,,2027-01-11,607706,228547,"59, 59, 59","45, 45, 45",100%,NA,NA,"51.9166973149882,1.0187895235319",Tendring,E07000076
EPN-S0000000C3060,Eastern Power Networks (EPN),CUT THROAT LANE SW STN 132kV,Grid Substation,132,Medium,TL0359350614,65,0,44,21,-0.487560974854412,52.1441124704528,CUT THROAT LANE,,BEDFORD,Bedfordshire,MK40 2BQ,2011,2011-04-01,COLD,2022-08-17,ELP07260027-R01,0.18Ω 0.00Deg,0.09,2038-01-07,503593,250614,NA,NA,NA,NA,NA,"52.1441124704528,-0.487560974854412",Bedford,E06000055
EPN-S0000000C4055,Eastern Power Networks (EPN),LITTLE BARFORD 132kV,Grid Substation,132,Medium,TL1817557976,1065,0,1001,64,-0.272003403194028,52.2073460897954,,,LITTLE BARFORD,Bedfordshire,PE19 6YQ,1961,1938-04-01,COLD,2014-10-20,ELP0308-R01,0.09Ω 10.12Deg,0.07,2038-01-07,518175,257976,"117, 39, 39, 26, 26","90, 30, 30, 21, 21",100%,NA,NA,"52.2073460897954,-0.272003403194028",Bedford,E06000055
EPN-S0000000C4068,Eastern Power Networks (EPN),HUNTINGDON GRID 132kV,Grid Substation,132,High,TL2384173000,59,0,28,31,-0.183618102378877,52.3411055103611,ST PETERS ROAD,HUNTINGDON,BEDFORD,Cambridgeshire,PE29 7AE,1968,1968-04-01,COLD,2022-06-21,ELP07260015-R01,0.09Ω 0.00Deg,0.11,2038-01-07,523841,273000,"117, 117","90, 90",100%,NA,NA,"52.3411055103611,-0.183618102378877",Huntingdonshire,E07000011
EPN-S0000000C4146,Eastern Power Networks (EPN),VINE SOLAR,Grid Substation,132,Low,TL3267947391,41,0,39,2,-0.0640028556710319,52.1089392727796,VINE SOLAR FARM CHURCH LANE,SHINGAY-CUM-WENDY,NR ROYSTON,Cambridgeshire,SG8 0HJ,NA,2016-04-01,NA,,NA,NA,,2033-01-11,532679,247391,NA,NA,NA,NA,NA,"52.1089392727796,-0.0640028556710319",South Cambridgeshire,E07000012
EPN-S0000000C5015,Eastern Power Networks (EPN),EARLHAM 132kV,Grid Substation,132,High,TG18500837,458,0,418,40,1.22715148476072,52.6290809687739,EARLHAM 132 GIS OLD WATTON ROAD,EARLHAM,NORWICH,Norfolk,NR5 8NQ,2011,2010-04-01,HOT,2017-04-06,ESL1992015-R01,0.74Ω 0.00Deg,0.13,2030-01-11,618500,308370,"117, 117","90, 90",100%,NA,NA,"52.6290809687739,1.22715148476072",South Norfolk,E07000149
EPN-S0000000C5078,Eastern Power Networks (EPN),GT YARMOUTH PWR ST 132kV,Grid Substation,132,Low,TG5290504995,226,0,198,28,1.73185248561281,52.5838839076552,,,GREAT YARMOUTH SOUTH,Norfolk,NR30 3PY,NA,1999-04-01,COLD,2012-04-04,P-12-1565-01,NA,0.07,2029-01-11,652905,304995,NA,NA,NA,NA,NA,"52.5838839076552,1.73185248561281",Great Yarmouth,E07000145
EPN-S0000000C5084,Eastern Power Networks (EPN),TROWSE GRID 132kV,Grid Substation,132,Very High,TG2408406248,583,0,490,93,1.30807625655577,52.6077623298605,,,TROWSE,Norfolk,NR14 8SL,1966,1965-04-01,HOT,2017-02-15,ESL0951039-R02 RA,0.22Ω 0.00Deg,0.09,2030-01-11,624084,306248,"117, 117","90, 90",100%,NA,NA,"52.6077623298605,1.30807625655577",South Norfolk,E07000149
EPN-S0000000C5173,Eastern Power Networks (EPN),EASTON TEE,Grid Substation,132,NA,TG1287610807,1,0,1,0,1.14575883849959,52.6531885714698,"EASTON TEE, DEREHAM ROAD,",,"EASTON, NORFOLK,",NA,NR9 5DF,NA,1900-01-01,NA,,NA,NA,,,612876,310807,NA,NA,NA,NA,NA,"52.6531885714698,1.14575883849959",South Norfolk,E07000149
EPN-S0000000C6045,Eastern Power Networks (EPN),HEMPTON GRID 132kV,Grid Substation,132,High,TF9046829477,81,0,57,24,0.82576640727261,52.8291460633502,,,HEMPTON,Norfolk,NR21 7LJ,1966,1962-04-01,HOT,2014-12-22,ESL0343009-R01,NA,0.41,2030-01-15,590468,329477,"59, 59","45, 45",100%,NA,NA,"52.8291460633502,0.82576640727261",North Norfolk,E07000147
EPN-S0000000C6047,Eastern Power Networks (EPN),WALPOLE GIS 132KV,Grid Substation,132,Medium,TF4870016650,97,0,97,0,0.200532896725508,52.7270572195836,WALPOLE GIS 132KV,WALPOLE ST PETER,,Norfolk,PE14 7JE,NA,2009-04-01,HOT,2012-02-01,TGN(E) 152 I6,0.04Ω 51.00Deg,,2030-01-11,548700,316650,NA,NA,NA,NA,NA,"52.7270572195836,0.200532896725508",King's Lynn and West Norfolk,E07000146
EPN-S0000000C6142,Eastern Power Networks (EPN),SOUTH CREAKE 132KV,Grid Substation,132,High,TF9043529401,50,0,43,7,0.825232923687015,52.8284753493708,SOUTH CREAKE 132KV SHEREFORD ROAD,HEMPTON,FAKENHAM,Norfolk,NR21 7LJ,2015,2016-04-01,NA,,NA,NA,,2030-01-11,590435,329401,NA,NA,NA,NA,NA,"52.8284753493708,0.825232923687015",North Norfolk,E07000147
EPN-S0000000C7084,Eastern Power Networks (EPN),BRIMSDOWN 132kV,Grid Substation,132,High,TQ3672797998,216,0,212,4,-0.024488960820121,51.6641350951355,,,BRIMSDOWN,Greater London,EN3 7PY,1965,1965-04-01,HOT,2021-11-17,ELP05282044-R01,0.04Ω 0.00Deg,0.04,2037-01-07,536727,197998,NA,NA,NA,NA,NA,"51.6641350951355,-0.024488960820121",Enfield,E09000010
EPN-S0000000C7114,Eastern Power Networks (EPN),SHENFIELD GRID 132kV,Grid Substation,132,Very High,TQ6338296144,91,0,29,62,0.359721625446288,51.6403690736969,604A WASH ROAD,,HUTTON,Essex,CM13 1UP,1960,1958-04-01,COLD,2021-10-15,ELP05282043-R01,0.12Ω 0.00Deg,0.08,2037-01-07,563382,196144,"117, 117, 20, 20","90, 90, 15, 15",100%,NA,NA,"51.6403690736969,0.359721625446288",Brentwood,E07000068
EPN-S0000000C7130,Eastern Power Networks (EPN),RAYLEIGH MAIN 132KV,Grid Substation,132,Low,TQ7786091502,242,0,197,45,0.566379638723486,51.5942853304779,LONDON ROAD,RAWRETH,RAYLEIGH,Essex,SS11 8TZ,1980,1980-04-01,COLD,2020-03-27,ELP03607001-R01,0.57Ω 0.00Deg,0.04,2036-01-07,577860,191502,NA,NA,NA,NA,NA,"51.5942853304779,0.566379638723486",Rochford,E07000075
EPN-S0000000C7139,Eastern Power Networks (EPN),BARKING 132,Grid Substation,132,Medium,TQ4671582032,32,0,29,3,0.113154327829761,51.5181610603257,,,BARKING,Essex,IG11 0GQ,1952,1952-04-01,HOT,2004-08-19,EM0450,NA,0.09,2037-01-19,546715,182032,NA,NA,NA,NA,NA,"51.5181610603257,0.113154327829761",Barking and Dagenham,E09000002
EPN-S0000000C7159,Eastern Power Networks (EPN),WARLEY GRID 132KV,Grid Substation,132,High,TQ5960186268,326,0,300,26,0.30063947297193,51.552727386882,CLAY TYE ROAD,LITTLE WARLEY,WARLEY,Essex,RM14 3PL,1960,1960-04-01,HOT,2021-08-05,ELP05282029-R01,0.06Ω 0.00Deg,0.06,2037-01-07,559601,186268,NA,NA,NA,NA,NA,"51.552727386882,0.30063947297193",Havering,E09000016
EPN-S0000000C8006,Eastern Power Networks (EPN),BUSHEY MILL GRID 132kV,Grid Substation,132,High,TQ1201698202,69,0,48,21,-0.381544688623333,51.6714328435308,BUSHEY MILL LANE,PINNER,WATFORD,Hertfordshire,WD24 7TG,1966,1965-04-01,HOT,2019-08-23,ELP02011020-R01,0.67Ω 6.30Deg,0.1,2035-01-07,512016,198202,"117, 117","90, 90",100%,NA,NA,"51.6714328435308,-0.381544688623333",Watford,E07000103
EPN-S0000000C8029,Eastern Power Networks (EPN),ELSTREE AIS 132KV.,Grid Substation,132,High,TQ1469397067,14,0,14,0,-0.343222217153143,51.6606925252095,ELSTREE AIS 132KV,LETCHMORE HEATH,ELSTREE,Hertfordshire,WD25 8DT,NA,1954-04-01,HOT,,ELP02011024-R01,0.09Ω 0.00Deg,,2035-01-07,514693,197067,NA,NA,NA,NA,NA,"51.6606925252095,-0.343222217153143",Hertsmere,E07000098
EPN-S0000000C8079,Eastern Power Networks (EPN),MILL HILL 132kV,Grid Substation,132,Low,TQ2408192518,104,0,103,1,-0.209175086238387,51.6178191575858,PARTINGDALE LANE,MILL HILL,LONDON,Greater London,NW7 1NT,1963,1963-04-01,HOT,2018-10-02,ELP0061025-R01,0.13Ω 0.00Deg,0.06,2034-01-07,524081,192518,NA,NA,NA,NA,NA,"51.6178191575858,-0.209175086238387",Barnet,E09000003
EPN-S0000000C8081,Eastern Power Networks (EPN),STANMORE GRID 132kV,Grid Substation,132,High,TQ1693691442,123,0,87,36,-0.312686171183602,51.6096769482189,,,STANMORE,Hertfordshire,HA7 2RW,1961,1961-04-01,COLD,2013-10-24,P-13-3144-01,0.03Ω 0.00Deg,,2024-01-11,516936,191442,"117, 117, 39, 39","90, 90, 30, 30",100%,NA,NA,"51.6096769482189,-0.312686171183602",Harrow,E09000015
EPN-S0000000C8086,Eastern Power Networks (EPN),SUNDON 132kV,Grid Substation,132,Low,TL0318126980,525,0,480,45,-0.500702627893215,51.9317779571192,WATER END LANE,,CHARLTON,Bedfordshire,LU4 9UL,2003,1953-04-01,HOT,2016-10-20,ESL1728-R01,0.06Ω 0.00Deg,0.02,2024-01-11,503181,226980,NA,NA,NA,NA,NA,"51.9317779571192,-0.500702627893215",Central Bedfordshire,E06000056
EPN-S0000000C8098,Eastern Power Networks (EPN),PICCOTTS END GRID 132kV,Grid Substation,132,High,TL0472809415,123,0,103,20,-0.483526754498034,51.7736193837642,,,HEMEL HEMPSTEAD NORTH,Hertfordshire,HP1 3BA,1962,1960-04-01,COLD,2019-09-20,ELP02011029-R01,0.96Ω 0.00Deg,0.14,2035-01-15,504728,209415,"117, 117","90, 90",100%,NA,NA,"51.7736193837642,-0.483526754498034",Dacorum,E07000096
EPN-S0000000C8171,Eastern Power Networks (EPN),WATFORD SOUTH 132kV,Grid Substation,132,High,TQ1048894972,549,0,535,14,-0.404651376833844,51.642704737748,,,WATFORD WD2,Hertfordshire,WD19 4HY,1966,1965-04-01,HOT,2012-02-01,TGN(E) 152 I6,NA,,2032-01-11,510488,194972,NA,NA,NA,NA,NA,"51.642704737748,-0.404651376833844",Three Rivers,E07000102
EPN-S0000000C8245,Eastern Power Networks (EPN),ELSTREE GIS 132KV,Grid Substation,132,Low,TQ1476996896,112,0,112,0,-0.342180028458686,51.6591401724472,ELSTREE 132KV GIS,LETCHMORE HEATH,ELSTREE,Hertfordshire,WD25 8DT,NA,2012-04-01,HOT,2019-12-11,ELP02011024-R01,NA,0.07,2035-01-07,514769,196896,NA,NA,NA,NA,NA,"51.6591401724472,-0.342180028458686",Hertsmere,E07000098
EPN-S0000000D1011,Eastern Power Networks (EPN),BELCHAMP GRID 132/33kV,Grid Substation,132,High,TL7867344337,356,4,291,65,0.605358966326239,52.0685789944063,,,CLARE,Suffolk,CO10 7DL,1956,1944-04-01,HOT,2013-11-06,P-13-3058-01,0.20Ω 0.00Deg,,2038-01-07,578673,244337,"54, 54, 54, 54, 9, 9","45, 45, 45, 45, 7, 7","100%,  10.7MVA",,,"52.0685789944063,0.605358966326239",Braintree,E07000067
EPN-S0000000D1012,Eastern Power Networks (EPN),BURY GRID 132/33kV,Grid Substation,132,High,TL8601863686,244,2,199,45,0.722979910939776,52.2399236387066,,BURY ST EDMUNDS,BURY ST EDMUNDS SOUTH,Suffolk,IP33 2AX,1974,1974-04-01,COLD,2017-06-21,ESL1992032-R01,1.15Ω 0.00Deg,0.08,2031-01-11,586018,263686,"120, 120, 38, 38","90, 90, 29, 29","<100%, 100%",,,"52.2399236387066,0.722979910939776",West Suffolk,E07000245
EPN-S0000000D1024,Eastern Power Networks (EPN),IPSWICH GRID 132/33kV,Grid Substation,132,High,TM1510644372,343,2,271,72,1.13613641316806,52.0559562042733,,,IPSWICH WEST,Suffolk,IP1 2DZ,1964,1931-04-01,COLD,2010-06-25,P-10-696-40,NA,0.06,2027-01-11,615106,244372,"78, 78, 24, 24","60, 60, 18, 18",100%,,,"52.0559562042733,1.13613641316806",Ipswich,E07000202
EPN-S0000000D3031,Eastern Power Networks (EPN),ABBERTON GRID 132/33kV,Grid Substation,132,High,TL9893020144,337,2,279,58,0.886519235432711,51.8444446070525,ABBERTON ROAD,LAYER-DE-LA-HAYE,ABBERTON,Essex,CO2 0LA,1967,1967-04-01,COLD,2020-12-03,ELP03607042-R01,0.06Ω 0.00Deg,0.07,2036-01-07,598930,220144,"117, 117","90, 90",100%,,,"51.8444446070525,0.886519235432711",Colchester,E07000071
EPN-S0000000D3048,Eastern Power Networks (EPN),LAWFORD GRID 132/33kV,Grid Substation,132,Very High,TM07702854,291,3,286,5,1.01869819169731,51.9166367025341,,,LITTLE BROMLEY,Essex,CO11 2QA,NA,1962-04-01,COLD,2014-04-17,ESL0042-11448,0.10Ω 5.20Deg,,2027-01-15,607700,228540,NA,NA,NA,,,"51.9166367025341,1.01869819169731",Tendring,E07000076
EPN-S0000000D3057,Eastern Power Networks (EPN),CHELMSFORD EAST GRID 132/33kV,Grid Substation,132,High,TL7407704926,234,2,233,1,0.518499417006754,51.716047848483,,,SANDON,Essex,CM2 7AQ,NA,1954-04-01,COLD,2020-09-11,ELP03607020-R01,0.41Ω 0.00Deg,0.08,2036-01-07,574077,204926,NA,NA,NA,,,"51.716047848483,0.518499417006754",Chelmsford,E07000070
EPN-S0000000D4021,Eastern Power Networks (EPN),RAE GRID 132/33kV,Grid Substation,132,Medium,TL0328056400,84,1,58,26,-0.490374241811369,52.1961716102299,NODE NO 70050 TWINWOODS ROAD,,CLAPHAM,Bedfordshire,MK41 6JE,1948,1948-04-01,COLD,2022-08-17,ELP07260031-R01,0.32Ω 0.00Deg,0.05,2038-01-07,503280,256400,NA,NA,NA,NA,NA,"52.1961716102299,-0.490374241811369",Bedford,E06000055
EPN-S0000000D4022,Eastern Power Networks (EPN),MARSTON RD GRID 132/33kV,Grid Substation,132,Medium,TL0054743265,203,2,143,60,-0.534225220770837,52.0786249846535,HOO LANE,,WOOTON,Bedfordshire,MK43 9EH,2009,2007-04-01,COLD,2020-04-09,ELP03607004-R01,0.10Ω 0.00Deg,0.07,2036-01-07,500547,243265,"117, 117","90, 90",100%,,,"52.0786249846535,-0.534225220770837",Bedford,E06000055
EPN-S0000000D4071,Eastern Power Networks (EPN),MELBOURN GRID 132/33kV,Grid Substation,132,Medium,TL3689243722,277,1,238,39,-0.00399539415023235,52.0749472610913,,,MELBOURN,Cambridgeshire,SG8 6DF,1952,1952-04-01,COLD,2013-12-04,P-13-3291-01,NA,0.24,2026-01-11,536892,243722,"78, 15","60, 12","<100%, 100%",,,"52.0749472610913,-0.00399539415023235",South Cambridgeshire,E07000012
EPN-S0000000D5023,Eastern Power Networks (EPN),SALL GRID 132/33kV,Grid Substation,132,High,TG12662416,358,2,356,2,1.15120280997115,52.7731302289295,,,CAWSTON,Norfolk,NR10 4BF,NA,1987-04-01,COLD,2013-03-18,P-13-2414-02,NA,0.11,2028-01-15,612660,324160,"24, 24","18, 18",100%,,,"52.7731302289295,1.15120280997115",Broadland,E07000144
EPN-S0000000D5084,Eastern Power Networks (EPN),TROWSE GRID 132/33kV,Grid Substation,132,High,TG24090626,292,2,290,2,1.30817283390477,52.6078675543899,,,TROWSE,Norfolk,NR14 8SL,NA,1966-04-01,HOT,2017-02-15,ESL0951039-R02 RA,0.22Ω 0.00Deg,0.09,2030-01-15,624090,306260,NA,NA,NA,,,"52.6078675543899,1.30817283390477",South Norfolk,E07000149
EPN-S0000000D6042,Eastern Power Networks (EPN),SWAFFHAM GRID 132/33kV,Grid Substation,132,High,TF8289808423,353,2,301,52,0.701819023078985,52.6427111993623,,,SWAFFHAM,Norfolk,PE37 8DB,1964,1961-04-01,HOT,,ESL1669-R01,NA,,2030-01-11,582898,308423,"90, 90, 9, 9, 9","60, 60, 8, 8, 8","100%,  Not Available",,,"52.6427111993623,0.701819023078985",Breckland,E07000143
EPN-S0000000D7015,Eastern Power Networks (EPN),RYE HOUSE 132/33kV,Grid Substation,132,High,TL3840308493,176,4,168,8,0.00389214056568798,51.7580295556759,,,HODDESDON,Hertfordshire,EN11 0AT,1952,1952-04-01,HOT,2010-07-22,P-06-057,0.23Ω 0.00Deg,0.09,2024-01-15,538403,208493,NA,NA,NA,NA,NA,"51.7580295556759,0.00389214056568798",Broxbourne,E07000095
EPN-S0000000D7017,Eastern Power Networks (EPN),NEVENDON GRID 132/33kV,Grid Substation,132,High,TQ72199134,382,2,333,49,0.484526289220705,51.5945902916807,GARDENERS LANE NORTH,,BASILDON,Essex,SS14 3JN,1963,1960-04-01,COLD,2020-10-21,ELP03607021-R01,0.06Ω 0.00Deg,0.07,2036-01-07,572190,191340,NA,NA,NA,,,"51.5945902916807,0.484526289220705",Basildon,E07000066
EPN-S0000000D7021,Eastern Power Networks (EPN),TOTTENHAM GRID 132/33kV,Grid Substation,132,High,TQ35309130,155,2,153,2,-0.0476950548666127,51.6042917650286,WATERMEAD WAY,TOTTENHAM,LONDON,Greater London,N17 0QJ,NA,1962-04-01,HOT,2018-10-16,ELP0061042-R01,0.09Ω 0.00Deg,0.06,2034-01-15,535300,191300,NA,NA,NA,NA,NA,"51.6042917650286,-0.0476950548666127",Haringey,E09000014
EPN-S0000000D7059,Eastern Power Networks (EPN),BISHOPS STORTFORD GRID 132/33kV,Grid Substation,132,High,TL4753022134,341,2,296,45,0.141840215127366,51.8782623044817,,,BISHOPS STORTFORD,Hertfordshire,CM23 2QE,1967,1966-04-01,COLD,2022-09-07,ELP07260032-R01,0.23Ω 0.00Deg,0.07,2038-01-07,547530,222134,"108, 108","90, 90",100%,,,"51.8782623044817,0.141840215127366",East Hertfordshire,E07000242
EPN-S0000000D7098,Eastern Power Networks (EPN),HORNSEY GRID 132/33kV,Grid Substation,132,High,TQ30718905,196,2,193,3,-0.114771695980871,51.5851553463128,,,HORNSEY,Greater London,N8 9BD,NA,1964-04-01,COLD,2018-10-03,ELP0061032-R01,0.18Ω 0.00Deg,0.07,2034-01-07,530710,189050,NA,NA,NA,,,"51.5851553463128,-0.114771695980871",Haringey,E09000014
EPN-S0000000D7125,Eastern Power Networks (EPN),FLEETHALL GRID 132/33KV,Grid Substation,132,Very High,TQ8954189299,346,2,286,60,0.733630386220976,51.5706943663914,FLEETHALL GRID,,SOUTHEND NORTH,Essex,SS4 1LW,1959,1959-04-01,COLD,2008-12-10,P-07-271A,NA,0.09,2023-01-11,589541,189299,"117, 78","90, 60",100%,,,"51.5706943663914,0.733630386220976",Rochford,E07000075
EPN-S0000000D8023,Eastern Power Networks (EPN),WESTONING GRID 132/33kV,Grid Substation,132,High,TL0377433064,210,2,179,31,-0.490245258870721,51.9863486231079,,,WESTONING,Bedfordshire,MK45 5JD,2003,1975-04-01,HOT,2017-04-26,ESL1992013-R01,0.65Ω 0.00Deg,0.19,2026-01-11,503774,233064,"117, 117","90, 90",100%,,,"51.9863486231079,-0.490245258870721",Central Bedfordshire,E06000056
EPN-S0000000D8031,Eastern Power Networks (EPN),HARROW NORTH GRID 132/33kV,Grid Substation,132,High,TQ1327388089,331,2,290,41,-0.366642550258783,51.5802894088374,FARM AVENUE,,HARROW HA2,Middlesex,HA2 7LL,1956,1956-04-01,COLD,2019-06-22,ELP02011025-R01,NA,0.07,2035-01-07,513273,188089,"117, 117, 20, 18, 18","90, 90, 17, 15, 15","100%,  Not Available,  Not Available",,,"51.5802894088374,-0.366642550258783",Harrow,E09000015
EPN-S0000000D8066,Eastern Power Networks (EPN),WELWYN GRID 132/33kV,Grid Substation,132,High,TL23581148,330,2,328,2,-0.209693644579836,51.7883364899696,,BURROWFIELDS INDUSTRIAL ESTATE,WELWYN GARDEN CITY,Hertfordshire,AL7 4SR,NA,1963-04-01,COLD,2013-12-02,P-13-3264-01,NA,0.06,2024-01-11,523580,211480,"23, 23","17, 17",<100%,,,"51.7883364899696,-0.209693644579836",Welwyn Hatfield,E07000241
EPN-S0000000D8081,Eastern Power Networks (EPN),STANMORE GRID 132/33kV,Grid Substation,132,High,TQ16959145,230,2,200,30,-0.312481421021654,51.6097459425312,,,STANMORE,Hertfordshire,HA7 2RW,NA,1961-04-01,COLD,2013-10-24,P-13-3144-01,0.03Ω 0.00Deg,,2032-01-11,516950,191450,NA,NA,NA,,,"51.6097459425312,-0.312481421021654",Harrow,E09000015
EPN-S0000000D8095,Eastern Power Networks (EPN),HOLYWELL GRID 132/33kV,Grid Substation,132,High,TQ1026395358,282,2,236,46,-0.4077801463388,51.6462181285799,,,WATFORD WD1,Hertfordshire,WD18 6QT,1961,1961-04-01,HOT,2018-11-21,ELP01805002-R01,0.12Ω 0.00Deg,,2032-01-11,510263,195358,NA,NA,NA,,,"51.6462181285799,-0.4077801463388",Watford,E07000103
EPN-S0000000D8109,Eastern Power Networks (EPN),WYMONDLEY GRID 132/33kV,Grid Substation,132,Medium,TL2064427047,293,2,277,16,-0.246809514039809,51.9288728355622,,,ST IPPOLYTS,Hertfordshire,SG4 7JL,1956,1968-04-01,HOT,2017-04-12,ESL1992011-R01,0.41Ω 0.00Deg,0.17,2026-01-11,520644,227047,"117, 117","90, 90",100%,,,"51.9288728355622,-0.246809514039809",North Hertfordshire,E07000099
EPN-S0000000D8119,Eastern Power Networks (EPN),HATFIELD GRID 132/33kV,Grid Substation,132,High,TL21710570,181,2,167,14,-0.23881421148122,51.7368023047392,FELLOWES LANE,,COLNEY HEATH,Hertfordshire,AL4 0QT,NA,1959-04-01,COLD,2021-09-15,ELP06736-R01,0.39Ω 0.00Deg,0.06,2035-01-07,521710,205700,NA,NA,NA,,,"51.7368023047392,-0.23881421148122",Welwyn Hatfield,E07000241
EPN-S0000000D8122,Eastern Power Networks (EPN),LEICESTER RD GRID 132/33kV,Grid Substation,132,High,TQ2088584346,323,1,285,38,-0.258125250627133,51.5450707591394,LEICESTER ROAD,"""NEASDEN, SOUTH RUISLIP""",LONDON,Middlesex,NW10 8RW,1982,1982-04-01,COLD,2018-02-20,LEIC-RINA-RP-25-0001,0.16Ω 0.00Deg,0.02,2032-01-11,520885,184346,"80, 78, 59","60, 60, 45",100%,,,"51.5450707591394,-0.258125250627133",Brent,E09000005
EPN-S0000000D8135,Eastern Power Networks (EPN),FINCHLEY GRID 132/33kV,Grid Substation,132,High,TQ2585990643,340,2,264,76,-0.184179998417775,51.6005745884072,OAKFIELD ROAD,FINCHLEY N3,LONDON,Greater London,N3 2HX,1959,1959-04-01,HOT,2018-09-19,ELP0062028-R01,0.23Ω 0.00Deg,0.17,2034-01-07,525859,190643,"117, 117","90, 90",100%,,,"51.6005745884072,-0.184179998417775",Barnet,E09000003
EPN-S0000000E3044,Eastern Power Networks (EPN),COLCHESTER GRID 132/25kV,Grid Substation,132,Very High,TM0178223988,78,2,76,2,0.930107723117814,51.8779379244362,HAVEN ROAD,,COLCHESTER EAST,Essex,CO2 8GY,NA,1962-04-01,HOT,2016-08-11,ESL1519024-R01 RA,0.60Ω 0.00Deg,0.22,2027-01-15,601782,223988,NA,NA,NA,NA,NA,"51.8779379244362,0.930107723117814",Colchester,E07000071
EPN-S0000000E6060,Eastern Power Networks (EPN),PETERBOROUGH CENTRAL 132/25kV,Grid Substation,132,Very High,TL19279805,43,1,42,1,-0.241735581262625,52.5672113548695,LONDON ROAD,,PETERBOROUGH,Cambridgeshire,PE1 1FP,NA,1961-04-01,COLD,2013-01-03,P-12-2270-01,NA,0.04,2028-01-15,519270,298050,NA,NA,NA,NA,NA,"52.5672113548695,-0.241735581262625",Peterborough,E06000031
EPN-S0000000E7002,Eastern Power Networks (EPN),BASILDON GRID 132/25kV,Grid Substation,132,High,TQ6585388060,88,2,85,3,0.391578047336981,51.5670242115947,,,DUNTON,Essex,RM14 3TD,1959,1959-04-01,COLD,2020-09-04,ELP03872-R01,0.07Ω 0.00Deg,0.0,2023-01-15,565853,188060,NA,NA,NA,NA,NA,"51.5670242115947,0.391578047336981",Thurrock,E06000034
EPN-S0000000E7015,Eastern Power Networks (EPN),RYE HOUSE 132/25kV,Grid Substation,132,High,TL3854209087,67,2,57,10,0.00614134407546289,51.7633326356241,,,HODDESDON,Hertfordshire,EN11 0AT,NA,1981-04-01,HOT,2010-07-22,P-06-057,0.23Ω 0.00Deg,0.09,2024-01-15,538542,209087,NA,NA,NA,NA,NA,"51.7633326356241,0.00614134407546289",Broxbourne,E07000095
EPN-S0000000E7057,Eastern Power Networks (EPN),SOUTHEND GRID 132/25kV,Grid Substation,132,High,TQ87608606,56,2,46,10,0.703929468109945,51.5422524126284,NORTH ROAD,,SOUTHEND ON SEA,Essex,SS0 7AY,NA,1992-04-01,HOT,2017-03-30,ESL1992028-R01,0.11Ω 0.00Deg,0.0,2023-01-15,587600,186060,NA,NA,NA,NA,NA,"51.5422524126284,0.703929468109945",Southend-on-Sea,E06000033
EPN-S0000000E7118,Eastern Power Networks (EPN),TOTTENHAM 132/25kV,Grid Substation,132,High,TQ35319131,10,2,10,0,-0.0475468924104856,51.6043792253818,,,TOTTENHAM N17,Greater London,N17 0QJ,NA,1996-04-01,HOT,2018-10-16,ELP0061042-R01,0.09Ω 0.00Deg,0.06,2034-01-15,535310,191310,NA,NA,NA,NA,NA,"51.6043792253818,-0.0475468924104856",Haringey,E09000014
EPN-S0000000F3044,Eastern Power Networks (EPN),COLCHESTER GRID 132/11kV,Grid Substation,132,Very High,TM0178223988,135,2,128,7,0.930107723117814,51.8779379244362,HAVEN ROAD,,COLCHESTER EAST,Essex,CO2 8GY,1950,1988-04-01,HOT,2016-08-11,ESL1519024-R01 RA,0.60Ω 0.00Deg,0.22,2027-01-15,601782,223988,NA,NA,NA,,,"51.8779379244362,0.930107723117814",Colchester,E07000071
EPN-S0000000F4039,Eastern Power Networks (EPN),EDISON RD GRID 132/11kV,Grid Substation,132,Medium,TL0814951360,214,2,173,41,-0.420771552305244,52.1499445946593,,,BEDFORD,Bedfordshire,MK41 0LZ,1963,1963-04-01,COLD,2022-08-16,ELP07260030-R01,0.50Ω 0.00Deg,0.1,2038-01-07,508149,251360,"40, 36","30, 30",100%,,,"52.1499445946593,-0.420771552305244",Bedford,E06000055
EPN-S0000000F4065,Eastern Power Networks (EPN),FULBOURN 132/11kV,Grid Substation,132,Medium,TL49545668,192,2,175,17,0.186107578703625,52.1880935162035,,,FULBOURN,Cambridgeshire,CB1 9LR,NA,1954-04-01,COLD,2011-05-06,P-11-9991,NA,0.08,2025-01-11,549540,256680,"40, 40","30, 30",100%,,,"52.1880935162035,0.186107578703625",South Cambridgeshire,E07000012
EPN-S0000000F4068,Eastern Power Networks (EPN),HUNTINGDON GRID 132/11kV,Grid Substation,132,High,TL23887296,246,2,226,20,-0.183060686204365,52.3407372864036,ST PETERS ROAD,HUNTINGDON,BEDFORD,Cambridgeshire,PE29 7HD,NA,1968-04-01,COLD,2022-06-21,ELP07260015-R01,0.09Ω 0.00Deg,0.11,2038-01-07,523880,272960,NA,NA,NA,,,"52.3407372864036,-0.183060686204365",Huntingdonshire,E07000011
EPN-S0000000F5014,Eastern Power Networks (EPN),THORPE GRID 132/11kV,Grid Substation,132,Very High,TG24860793,264,2,252,12,1.32065922068105,52.6225373412088,,,NORWICH NR1,Norfolk,NR1 1TZ,NA,1954-04-01,COLD,2014-12-22,P-13-3259-01,0.55Ω 20.00Deg,0.03,2029-01-15,624860,307930,NA,NA,NA,,,"52.6225373412088,1.32065922068105",Norwich,E07000148
EPN-S0000000F5110,Eastern Power Networks (EPN),BUNGALOW LN 33/11KV SITE.,Primary Substation,33,Very High,TG27370856,2,0,2,0,1.35810635813387,52.6271468349863,BUNGALOW LANE,THORPE ST ANDREW,NORWICH,Norfolk,NR7 0GW,NA,2009-04-01,NA,,NA,NA,,,627370,308560,NA,NA,NA,NA,NA,"52.6271468349863,1.35810635813387",Broadland,E07000144
EPN-S0000000F6057,Eastern Power Networks (EPN),PETERBOROUGH EAST GRID 132/11kV,Grid Substation,132,Very High,TF2087200303,408,2,344,64,-0.217291123167596,52.587102404767,,,PETERBOROUGH PE1,Cambridgeshire,PE1 5LZ,1975,1974-04-01,HOT,2013-12-19,P-13-3246-01,0.37Ω 0.00Deg,0.08,2028-01-11,520872,300303,NA,NA,NA,,,"52.587102404767,-0.217291123167596",Peterborough,E06000031
EPN-S0000000F7021,Eastern Power Networks (EPN),TOTTENHAM GRID 132/11kV,Grid Substation,132,High,TQ35309130,182,2,180,2,-0.0476950548666127,51.6042917650286,WATERMEAD WAY,TOTTENHAM,LONDON,Greater London,N17 0QJ,NA,1962-04-01,HOT,2018-10-16,ELP0061042-R01,0.09Ω 0.00Deg,0.06,2034-01-07,535300,191300,NA,NA,NA,,,"51.6042917650286,-0.0476950548666127",Haringey,E09000014
EPN-S0000000F7057,Eastern Power Networks (EPN),SOUTHEND GRID 132/11kV,Grid Substation,132,High,TQ8765386006,327,2,301,26,0.704664080153825,51.5417498136999,,,SOUTHEND WEST,Essex,SS0 7AY,1965,1958-04-01,HOT,2017-03-30,ESL1992028-R01,0.11Ω 0.00Deg,0.0,2023-01-15,587653,186006,NA,NA,NA,,,"51.5417498136999,0.704664080153825",Southend-on-Sea,E06000033
EPN-S0000000F7236,Eastern Power Networks (EPN),RAINHAM RD DATA CENTRE,Grid Substation,132,Low,TQ5077585421,19,0,16,3,0.173074773037242,51.5475429155149,YEWTREE AVENUE,,DAGENHAM,NA,RM10 7XS,NA,2019-04-01,NA,,NA,NA,,2037-12-12,550775,185421,NA,NA,NA,NA,NA,"51.5475429155149,0.173074773037242",Barking and Dagenham,E09000002
EPN-S0000000F8006,Eastern Power Networks (EPN),BUSHEY MILL GRID 132/11kV,Grid Substation,132,High,TQ1204098174,281,3,264,17,-0.381206747132048,51.6711764097376,BUSHEY MILL LANE,PINNER,WATFORD,Hertfordshire,WD24 7TG,1996,1995-04-01,HOT,2019-08-23,ELP02011020-R01,0.67Ω 6.30Deg,0.1,2035-01-07,512040,198174,NA,NA,NA,,,"51.6711764097376,-0.381206747132048",Watford,E07000103
EPN-S0000000G1001,Eastern Power Networks (EPN),NACTON PRIMARY 33KV,Primary Substation,33,Medium,TM1981641953,1,0,1,0,1.2031676568957,52.0323951714821,,NACTON,IPSWICH EAST,Suffolk,IP3 9RZ,NA,2003-04-01,HOT,,ESL1519004-R01 RA,0.95Ω 0.00Deg,,,619816,241953,NA,NA,NA,NA,NA,"52.0323951714821,1.2031676568957",Ipswich,E07000202
EPN-S0000000G1002,Eastern Power Networks (EPN),BELSTEAD SWITCHING STN 33kV,Primary Substation,33,High,TM1489741344,23,0,12,11,1.13119109253301,52.0288543053338,,,IPSWICH SOUTH,Suffolk,IP8 3UN,1974,1974-04-01,HOT,2014-01-30,P-14-3350-01,0.24Ω 0.00Deg,,2027-01-11,614897,241344,NA,NA,NA,NA,NA,"52.0288543053338,1.13119109253301",Babergh,E07000200
EPN-S0000000G1007,Eastern Power Networks (EPN),STOKE PRIMARY 33kV,Primary Substation,33,Medium,TM1613542340,9,0,2,7,1.1498371108163,52.037314840283,,,IPSWICH,Suffolk,IP2 8LN,NA,2002-04-01,NA,,NA,NA,,2028-01-15,616135,242340,NA,NA,NA,NA,NA,"52.037314840283,1.1498371108163",Ipswich,E07000202
EPN-S0000000G1022,Eastern Power Networks (EPN),BRITISH SUGAR 33kV,Primary Substation,33,Low,TL8652065696,133,0,120,13,0.731432103976518,52.2578039105025,COMPIEGNE WAY,,BURY ST EDMUNDS,Suffolk,IP32 7HT,1999,1998-04-01,COLD,2017-06-16,ESL1992035-R01,4.85Ω 0.00Deg,0.15,2031-01-11,586520,265696,NA,NA,NA,NA,NA,"52.2578039105025,0.731432103976518",West Suffolk,E07000245
EPN-S0000000G1039,Eastern Power Networks (EPN),STRADISHALL AIRFIELD SOLAR FARM 33kV,Primary Substation,33,Low,TL7288550891,30,0,22,8,0.524326800673514,52.1292812195241,STRADISHALL AIRFIELD SOLAR FARM,LANCASTER WAY,STRADISHALL,Cambridgeshire,CO10 8EX,NA,2013-04-01,COLD,2013-10-31,P-13-2917-02,0.13Ω 0.00Deg,0.12,2033-01-11,572885,250891,NA,NA,NA,NA,NA,"52.1292812195241,0.524326800673514",West Suffolk,E07000245
EPN-S0000000G1051,Eastern Power Networks (EPN),TATTINGSTONE PRIMARY 33kV,Primary Substation,33,High,TM1409337899,28,0,9,19,1.11733784932158,51.9982379903857,,,TATTINGSTONE,Suffolk,IP9 2NN,1969,1955-04-01,HOT,2014-09-17,ESL0343016-R02,2.39Ω 0.00Deg,1.65,2027-01-15,614093,237899,"15, 15","12, 12",<100%,NA,NA,"51.9982379903857,1.11733784932158",Babergh,E07000200
EPN-S0000000G1054,Eastern Power Networks (EPN),HADLEIGH PRIMARY 33kV,Primary Substation,33,High,TM0317742661,57,0,24,33,0.961381592586124,52.0450926432549,STONEHOUSE ROAD,,HADLEIGH,Suffolk,IP7 5BE,2010,1966-04-01,COLD,2014-10-28,ESL0042-59,NA,0.27,2031-01-15,603177,242661,"24, 24","18, 18",100%,NA,NA,"52.0450926432549,0.961381592586124",Babergh,E07000200
EPN-S0000000G1062,Eastern Power Networks (EPN),FORNHAM PRIMARY 33kV,Primary Substation,33,High,TL8493666554,25,0,17,8,0.708721622406292,52.2660432699163,,,FORNHAM ST MARTIN,Suffolk,IP32 6NU,1968,1968-04-01,COLD,2017-06-15,ESL1992033-R01,1.70Ω 0.00Deg,0.19,2031-01-15,584936,266554,"23, 23","17, 17",<100%,NA,NA,"52.2660432699163,0.708721622406292",West Suffolk,E07000245
EPN-S0000000G1064,Eastern Power Networks (EPN),KENNINGHALL PRIMARY 33kV,Primary Substation,33,High,TM0356785661,33,0,15,18,0.992937746313504,52.431010633847,,,KENNINGHALL,Norfolk,NR16 2EL,1976,1957-04-01,HOT,2014-09-05,ESL0042-056,0.84Ω 0.00Deg,,2029-01-11,603567,285661,"15, 15","11, 11",<100%,NA,NA,"52.431010633847,0.992937746313504",Breckland,E07000143
EPN-S0000000G1067,Eastern Power Networks (EPN),WRATTING PRIMARY 33kV,Primary Substation,33,High,TL6989747641,14,0,10,4,0.479097999046256,52.1010152603854,,,LITTLE WRATTING,Suffolk,CB9 7UQ,1979,1962-04-01,COLD,2022-07-01,ELP07260021-R01,4.22Ω 0.00Deg,0.11,2038-01-15,569897,247641,"23, 13","18, 10","100%,  <100%",NA,NA,"52.1010152603854,0.479097999046256",West Suffolk,E07000245
EPN-S0000000G1069,Eastern Power Networks (EPN),COTTON PRIMARY 33kV,Primary Substation,33,High,TM0663066756,38,0,28,10,1.02630418653114,52.2601416664062,,,COTTON,Suffolk,IP14 4QQ,1964,1964-04-01,HOT,2016-07-07,ESL1519014-R01,0.33Ω 0.00Deg,0.37,2031-01-15,606630,266756,"10, 10","8, 7",<100%,NA,NA,"52.2601416664062,1.02630418653114",Mid Suffolk,E07000203
EPN-S0000000G1070,Eastern Power Networks (EPN),DEBENHAM PRIMARY 33kV,Primary Substation,33,High,TM1769062580,39,0,21,18,1.18541281052368,52.2183945067426,,,DEBENHAM,Suffolk,IP14 6LD,1976,1959-04-01,HOT,2014-09-05,ESL0042-048,NA,0.36,2031-01-15,617690,262580,"15, 15","12, 12",100%,NA,NA,"52.2183945067426,1.18541281052368",Mid Suffolk,E07000203
EPN-S0000000G1073,Eastern Power Networks (EPN),RICKINGHALL PRIMARY 33kV,Primary Substation,33,High,TM0457774640,30,0,17,13,1.00105090224178,52.3316902707897,,,RICKINGHALL,Suffolk,IP22 1LL,1991,1959-04-01,HOT,2016-07-08,ESL1519013-R01,0.46Ω 0.00Deg,0.44,2029-01-15,604577,274640,"15, 15","11, 11",100%,NA,NA,"52.3316902707897,1.00105090224178",Mid Suffolk,E07000203
EPN-S0000000G1074,Eastern Power Networks (EPN),MANGANESE BRONZE PRIMARY 33kV,Primary Substation,33,Low,TM1483244960,33,0,14,19,1.13251583279443,52.0613409790985,,,IPSWICH WEST,Suffolk,IP2 0UF,1959,1959-04-01,HOT,2014-08-05,ESL0042-023,0.22Ω 0.00Deg,,2027-01-15,614832,244960,"18, 18","15, 15",100%,NA,NA,"52.0613409790985,1.13251583279443",Ipswich,E07000202
EPN-S0000000G1075,Eastern Power Networks (EPN),SHOTLEY PRIMARY 33KV,Primary Substation,33,Low,TM2375435399,67,0,64,3,1.25620233109837,51.9719921057087,OLD HALL ROAD TOP OF HILL,,SHOTLEY,NA,UNKN,NA,2017-04-01,NA,,NA,NA,,2036-05-28,623754,235399,"24, 24","18, 18",100%,NA,NA,"51.9719921057087,1.25620233109837",Babergh,E07000200
EPN-S0000000G1161,Eastern Power Networks (EPN),TOGGAM SOLAR FARM,Primary Substation,33,Low,TL7049884775,34,0,27,7,0.506612763633413,52.4343584112776,TOGGAM SOLAR FARM NEW FEN GRAVEL DROVE,LAKENHEATH,,Suffolk,IP27 9LN,NA,2016-04-01,NA,,NA,NA,,2033-01-11,570498,284775,NA,NA,NA,NA,NA,"52.4343584112776,0.506612763633413",West Suffolk,E07000245
EPN-S0000000G1164,Eastern Power Networks (EPN),STRATTON HALL DRIFT SW STN,Primary Substation,33,Low,TM2496839141,66,0,62,4,1.27629830820906,52.0050907221223,"STRATTON HALL DRIFT,",,"LEVINGTON, SUFFOLK,",NA,IP10 0LP,NA,2016-04-01,NA,,NA,NA,,2033-01-15,624968,239141,NA,NA,NA,NA,NA,"52.0050907221223,1.27629830820906",East Suffolk,E07000244
EPN-S0000000G1166,Eastern Power Networks (EPN),GREYS HALL GENERATION,Primary Substation,33,Low,TL9089839423,31,0,28,3,0.78075509507883,52.0203764022737,"GREYS HALL GENERATION, ROTTEN ROW,",,"SUDBURY,ESSEX,",NA,CO10 0WS,NA,2015-04-01,NA,,NA,NA,,2033-01-11,590898,239423,NA,NA,NA,NA,NA,"52.0203764022737,0.78075509507883",Babergh,E07000200
EPN-S0000000G1184,Eastern Power Networks (EPN),INGHAM SOLAR FARM,Primary Substation,33,Low,TL8500672240,47,0,41,6,0.712865695431788,52.3170810175533,,,INGHAM,NA,IP31 1NR,NA,2020-09-15,NA,,NA,NA,,2037-12-12,585006,272240,NA,NA,NA,NA,NA,"52.3170810175533,0.712865695431788",West Suffolk,E07000245
EPN-S0000000G3010,Eastern Power Networks (EPN),VALLEYBRIDGE RD PRIMARY 33kV,Primary Substation,33,High,TM1827316420,32,0,10,22,1.16453954623853,51.8037936390689,,,CLACTON NORTH,Essex,CO15 4AD,1967,1966-04-01,COLD,2013-10-01,P-13-3064-01,0.12Ω 0.00Deg,,2025-01-15,618273,216420,"23, 23","17, 17",<100%,,,"51.8037936390689,1.16453954623853",Tendring,E07000076
EPN-S0000000G3017,Eastern Power Networks (EPN),COGGESHALL PRIMARY 33kV,Primary Substation,33,High,TL8497521663,37,0,28,9,0.684991796791491,51.8628808245267,,,COGGESHALL,Essex,CO6 1RQ,1973,1967-04-01,HOT,2017-05-17,ESL1992009-R01,3.29Ω 0.00Deg,0.22,2036-01-07,584975,221663,"15, 15","11, 11",100%,NA,NA,"51.8628808245267,0.684991796791491",Braintree,E07000067
EPN-S0000000G3020,Eastern Power Networks (EPN),PARSONS HEATH PRIMARY 33kV,Primary Substation,33,High,TM0223326355,47,0,14,33,0.938037171086197,51.8990280885252,,,COLCHESTER EAST,Essex,CO4 3YN,1966,1966-04-01,COLD,2014-03-13,P-14-3462-01,0.17Ω 0.00Deg,,2027-01-15,602233,226355,"23, 23","17, 17",3.5MVA,NA,NA,"51.8990280885252,0.938037171086197",Colchester,E07000071
EPN-S0000000G3032,Eastern Power Networks (EPN),BERECHURCH PRIMARY 33kV,Primary Substation,33,High,TL9994122201,33,0,3,30,0.902364832935916,51.862554375214,,,COLCHESTER,Essex,CO2 8LP,2005,2003-04-01,COLD,2020-06-26,ELP03607006-R01,1.10Ω 0.00Deg,0.08,2036-01-15,599941,222201,"24, 24","18, 18",100%,NA,NA,"51.862554375214,0.902364832935916",Colchester,E07000071
EPN-S0000000G3035,Eastern Power Networks (EPN),EARLS HALL FARM GENERATION 33kV,Primary Substation,33,Low,TM1502317175,22,0,14,8,1.11794378266,51.8118299824514,EARLS HALL FARM EARLS HALL DRIVE,ST OSYTH,CLACTON,Essex,CO16 8PB,NA,2012-04-01,NA,,NA,NA,,2033-01-11,615023,217175,NA,NA,NA,NA,NA,"51.8118299824514,1.11794378266",Tendring,E07000076
EPN-S0000000G3040,Eastern Power Networks (EPN),SOUTH WITHAM PRIMARY 33kV,Primary Substation,33,High,TL8186512858,23,0,23,0,0.635256236271183,51.7848208271905,HOWBRIDGE HALL ROAD,,WITHAM,Essex,CM8 3HY,NA,2013-04-01,COLD,,BPI-373733-D001,NA,,2036-02-06,581865,212858,"24, 24","18, 18",100%,NA,NA,"51.7848208271905,0.635256236271183",Braintree,E07000067
EPN-S0000000G3045,Eastern Power Networks (EPN),HIGHFIELDS SOLAR FM SWITCHROOM,Primary Substation,33,High,TL8764517632,31,0,28,3,0.721536020570785,51.8257885466076,HIGHFIELDS FARM,TIPTREE,,Essex,CO5 9BJ,NA,2013-04-01,NA,,NA,NA,,2032-01-15,587645,217632,NA,NA,NA,NA,NA,"51.8257885466076,0.721536020570785",Colchester,E07000071
EPN-S0000000G3046,Eastern Power Networks (EPN),LANGENHOE SOLAR FARM NO2 33kV,Primary Substation,33,Low,TM0125217301,31,0,29,2,0.918529628942245,51.8180851044581,LANGENHOE SOLAR FM,LANGENHOE,,Essex,UNKNOWN,NA,2014-04-01,NA,,NA,NA,,2032-01-11,601252,217301,NA,NA,NA,NA,NA,"51.8180851044581,0.918529628942245",Colchester,E07000071
EPN-S0000000G3053,Eastern Power Networks (EPN),WEST BRAINTREE PRIMARY 33KV,Primary Substation,33,Medium,TL7363220632,8,0,8,0,0.519917020649766,51.8572624090707,"A131 OPPOSITE TESCO,",,"GREAT NOTLEY, BRAINTREE,",NA,CM77 7WW,NA,2016-04-01,NA,,NA,NA,,2036-05-28,573632,220632,"24, 24","18, 18",100%,NA,NA,"51.8572624090707,0.519917020649766",Braintree,E07000067
EPN-S0000000G3056,Eastern Power Networks (EPN),WRITTLE ST PRIMARY 33kV,Primary Substation,33,High,TL7067306288,38,0,15,23,0.469940592172615,51.7293276124154,,,CHELMSFORD SOUTH,Essex,CM2 0JU,1950,1950-04-01,COLD,2020-10-28,ELP03607034-R01,0.89Ω 0.00Deg,0.06,2036-01-15,570673,206288,"24, 24","18, 18",100%,NA,NA,"51.7293276124154,0.469940592172615",Chelmsford,E07000070
EPN-S0000000G3067,Eastern Power Networks (EPN),DRAPERS SOLAR FM SWITCH ROOM 33kV,Primary Substation,33,High,TL7252520609,32,0,21,11,0.503847344676422,51.8573988418132,OFF MILCH HILL LANE,BARTHOLOMEW GREEN,GREAT LEIGHS,Essex,CM3 1QF,NA,2012-04-01,HOT,2014-02-10,P-13-2888-03,0.35Ω 0.00Deg,1.55,2033-01-11,572525,220609,NA,NA,NA,NA,NA,"51.8573988418132,0.503847344676422",Uttlesford,E07000077
EPN-S0000000G3075,Eastern Power Networks (EPN),MIDDLEWICK WIND FARM 33kV,Primary Substation,33,High,TQ9834799156,20,0,14,6,0.866105078428184,51.6561843453283,MIDDLEWICK WIND FARM HALL RD,MIDDLEWICK,SOUTHMINSTER,Essex,CM0 7JQ,NA,2012-04-01,NA,,NA,NA,,2032-01-11,598347,199156,NA,NA,NA,NA,NA,"51.6561843453283,0.866105078428184",Maldon,E07000074
EPN-S0000000G3098,Eastern Power Networks (EPN),TOOLEYS SOLAR FARM,Primary Substation,33,High,TL6495323428,31,0,28,3,0.395345192080191,51.885009595515,TOOLEYS SOLAR FARM BROOKEND,STEBBING,GREAT DUNMOW,Essex,CM6 3AG,NA,2004-04-01,NA,,NA,NA,,2032-01-11,564953,223428,NA,NA,NA,NA,NA,"51.885009595515,0.395345192080191",Uttlesford,E07000077
EPN-S0000000G3099,Eastern Power Networks (EPN),BARN FARM SOLAR,Primary Substation,33,Low,TM1494230325,36,0,27,9,1.1249493219602,51.9299158443413,BARN FARM SOLAR WIX ROAD,BRADFIELD HEATH,BRADFIELD,Essex,CO11 2UX,NA,2013-04-01,NA,,NA,NA,,2033-01-11,614942,230325,NA,NA,NA,NA,NA,"51.9299158443413,1.1249493219602",Tendring,E07000076
EPN-S0000000G3162,Eastern Power Networks (EPN),ARDLEIGH SOLAR FARM,Primary Substation,33,Medium,TM0610828167,31,0,28,3,0.995360646936645,51.9138786917458,ARDLEIGH SOLAR FARM FRATING ROAD,ARDLEIGH,COLCHESTER,Essex,CO7 7SU,NA,2016-04-01,NA,,NA,NA,,2033-01-11,606108,228167,NA,NA,NA,NA,NA,"51.9138786917458,0.995360646936645",Tendring,E07000076
EPN-S0000000G3164,Eastern Power Networks (EPN),TURNCOLE WIND FARM,Primary Substation,33,Low,TQ9872997491,32,0,29,3,0.870674988117171,51.6410979365248,TURNCOLE WIND FARM MARSH ROAD,,BURNHAM ON CROUCH,Essex,CM0 8NE,NA,2016-04-01,NA,,NA,NA,,2032-01-11,598729,197491,NA,NA,NA,NA,NA,"51.6410979365248,0.870674988117171",Maldon,E07000074
EPN-S0000000G4004,Eastern Power Networks (EPN),BURY LANE SOLAR 33kV,Primary Substation,33,High,TL3672143647,44,0,39,5,-0.00651887621852428,52.0743155825229,BURY LANE SOLAR FARM BURY LANE,MELBOURN,ROYSTON,Hertfordshire,SG8 6DF,NA,2013-04-01,HOT,2014-12-16,ESL0573-R01,1.50Ω 0.00Deg,,2033-01-11,536721,243647,NA,NA,NA,NA,NA,"52.0743155825229,-0.00651887621852428",South Cambridgeshire,E07000012
EPN-S0000000G4014,Eastern Power Networks (EPN),STOWBRIDGE SOLAR FARM 33kV,Primary Substation,33,Low,TL5154872067,22,0,18,4,0.22235838045785,52.325775839844,STOWBRIDGE SOLAR FM GREEN END,STRETHAM,ELY,Cambridgeshire,CB6 3LF,NA,2014-04-01,NA,,NA,NA,,2033-01-11,551548,272067,NA,NA,NA,NA,NA,"52.325775839844,0.22235838045785",East Cambridgeshire,E07000009
EPN-S0000000G4016,Eastern Power Networks (EPN),ALDRETH PRIMARY 33kV,Primary Substation,33,High,TL4483673370,41,0,29,12,0.124504087978303,52.3392928493518,,,ALDRETH,Cambridgeshire,CB6 3PJ,1963,1963-04-01,COLD,,P-10-697-01,0.11Ω 0.00Deg,,2025-01-15,544836,273370,"24, 24","19, 18",100%,NA,NA,"52.3392928493518,0.124504087978303",East Cambridgeshire,E07000009
EPN-S0000000G4029,Eastern Power Networks (EPN),EXNING SOLAR PARK 33kV,Primary Substation,33,High,TL6028964185,29,0,22,7,0.346762309444752,52.2524931620511,EXNING SOLAR PARK HEATH ROAD,,NEWMARKET,Suffolk,CB8 7LG,NA,2014-04-01,NA,,NA,NA,,2033-01-11,560289,264185,NA,NA,NA,NA,NA,"52.2524931620511,0.346762309444752",East Cambridgeshire,E07000009
EPN-S0000000G4031,Eastern Power Networks (EPN),OFFORD PRIMARY 33kV,Primary Substation,33,Medium,TL2108966236,29,0,10,19,-0.226423412257156,52.2809387158588,,,OFFORD DARCY,Cambridgeshire,PE19 5WX,1974,1964-04-01,COLD,2022-09-07,ELP07260023-R01,0.56Ω 0.00Deg,0.16,2038-01-15,521089,266236,"24, 24","18, 18",<100%,NA,NA,"52.2809387158588,-0.226423412257156",Huntingdonshire,E07000011
EPN-S0000000G4035,Eastern Power Networks (EPN),BIGGLESWADE WIND FARM 33kV,Primary Substation,33,High,TL1923240804,20,0,17,3,-0.262556131954858,52.0528051762337,BIGGLESWADE WIND FAR EDWORTH ROAD,,LANGFORD,Bedfordshire,SG18 9QP,NA,2012-04-01,NA,,NA,NA,,2033-01-11,519232,240804,NA,NA,NA,NA,NA,"52.0528051762337,-0.262556131954858",Central Bedfordshire,E06000056
EPN-S0000000G4045,Eastern Power Networks (EPN),SAWSTON PRIMARY 33kV,Primary Substation,33,Medium,TL4755249358,53,0,40,13,0.153870565086565,52.1228469941662,,,SAWSTON,Cambridgeshire,CB22 3JF,1966,1957-04-01,COLD,2011-07-21,P-11-1149,NA,0.18,2025-01-15,547552,249358,"40, 40","30, 30",100%,NA,NA,"52.1228469941662,0.153870565086565",South Cambridgeshire,E07000012
EPN-S0000000G4050,Eastern Power Networks (EPN),PERRY PRIMARY 33kV,Primary Substation,33,Medium,TL1566566296,52,0,41,11,-0.30587264127895,52.2826447987331,,,PERRY,Cambridgeshire,PE28 0BW,1966,1960-04-01,COLD,2022-07-19,ELP07260018-R01,0.17Ω 0.00Deg,0.04,2038-01-15,515665,266296,"9, 9, 9","8, 8, 8","<100%, 100%",NA,NA,"52.2826447987331,-0.30587264127895",Huntingdonshire,E07000011
EPN-S0000000G4054,Eastern Power Networks (EPN),STOREYS WAY PRIMARY 33kV,Primary Substation,33,Medium,TL4393559288,30,0,18,12,0.105283912408281,52.2130145794085,,,CAMBRIDGE WEST,Cambridgeshire,CB3 0AZ,2009,1964-04-01,COLD,2011-05-06,P-11-1010,0.08Ω 0.00Deg,,2025-01-15,543935,259288,"23, 23","17, 17",<100%,NA,NA,"52.2130145794085,0.105283912408281",Cambridge,E07000008
EPN-S0000000G4056,Eastern Power Networks (EPN),ADDENBROOKES 33kV,Primary Substation,33,Low,TL4653655156,87,0,85,2,0.141539603682747,52.1752073248283,CAMBRIDGE MEDIPARK HILLS ROAD,,CAMBRIDGE,Cambridgeshire,CB2,NA,2013-04-01,COLD,2012-11-09,P-12-2120-01,0.57Ω 0.00Deg,,2025-01-11,546536,255156,NA,NA,NA,NA,NA,"52.1752073248283,0.141539603682747",Cambridge,E07000008
EPN-S0000000G4059,Eastern Power Networks (EPN),BIGGLESWADE PRIMARY 33kV,Primary Substation,33,High,TL1918843932,26,0,9,17,-0.262106526559907,52.0809242628759,,,BIGGLESWADE,Bedfordshire,SG18 8BU,1973,1971-04-01,COLD,2022-02-25,ELP07260002-R01,0.93Ω 0.00Deg,0.08,2038-01-15,519188,243932,"23, 23","17, 17",<100%,NA,NA,"52.0809242628759,-0.262106526559907",Central Bedfordshire,E06000056
EPN-S0000000G4061,Eastern Power Networks (EPN),BROGBOROUGH PRIMARY 33kV,Primary Substation,33,Medium,SP9686339073,23,0,10,13,-0.58915193611578,52.0416038034548,,,BROGBOROUGH,Bedfordshire,MK43 0YB,1975,1964-04-01,COLD,2010-12-15,P-10-696-175,NA,0.1,2026-01-15,496863,239073,"18, 18","15, 15",<100%,NA,NA,"52.0416038034548,-0.58915193611578",Central Bedfordshire,E06000056
EPN-S0000000G4067,Eastern Power Networks (EPN),HOBACK SOLAR FARM SWITCHROOM 33kV,Primary Substation,33,Low,TL3489848954,25,0,20,5,-0.0310021981413516,52.1224468955654,HOBACK SOLAR FARM SWITCH ROOM,,NEW WIMPOLE,Cambridgeshire,SG8 5QB,NA,2012-04-01,COLD,2013-05-22,P-13-2998-01,0.12Ω 23.25Deg,,2033-01-11,534898,248954,NA,NA,NA,NA,NA,"52.1224468955654,-0.0310021981413516",South Cambridgeshire,E07000012
EPN-S0000000G4070,Eastern Power Networks (EPN),MADINGLEY RD PRIMARY 33kV,Primary Substation,33,Medium,TL4273059248,108,0,96,12,0.0876428335369878,52.212968363716,,,CAMBRIDGE WEST,Cambridgeshire,CB3 0EP,1966,2003-04-01,COLD,2020-07-09,ELP04224-R02,0.25Ω 0.00Deg,0.05,2025-01-15,542730,259248,"40, 40","30, 30",100%,NA,NA,"52.212968363716,0.0876428335369878",Cambridge,E07000008
EPN-S0000000G4081,Eastern Power Networks (EPN),WIGGIN HILL SOLAR FARM,Primary Substation,33,Medium,TL3107874512,27,0,25,2,-0.07686303863336,52.3530109529965,WIGGIN HILL SOLAR FM OLD RAMSEY ROAD,,ST IVES,Cambridgeshire,PE27 3LL,NA,2013-04-01,NA,,NA,NA,,2033-01-11,531078,274512,NA,NA,NA,NA,NA,"52.3530109529965,-0.07686303863336",Huntingdonshire,E07000011
EPN-S0000000G4082,Eastern Power Networks (EPN),WOOLLEY HILL WIND FARM 33kV,Primary Substation,33,Low,TL1598373070,23,0,19,4,-0.298880922063982,52.3434507434397,WOOLLEY HILL WIND FM GROVE LANE,ELLINGTON,HUNTINGDON,Cambridgeshire,PE28 0AA,NA,2013-04-01,NA,,NA,NA,,2033-01-11,515983,273070,NA,NA,NA,NA,NA,"52.3434507434397,-0.298880922063982",Huntingdonshire,E07000011
EPN-S0000000G4085,Eastern Power Networks (EPN),GODMANCHESTER PRIMARY 33kV,Primary Substation,33,Medium,TL2430671372,28,0,17,11,-0.177397835079399,52.3263718263768,,,GODMANCHESTER,Cambridgeshire,PE29 2AB,1973,1960-04-01,COLD,2022-04-04,ELP07260006-R01,0.42Ω 0.00Deg,0.08,2038-01-15,524306,271372,22,18,100%,NA,NA,"52.3263718263768,-0.177397835079399",Huntingdonshire,E07000011
EPN-S0000000G4087,Eastern Power Networks (EPN),S AND M POWER STATION 33kV,Primary Substation,33,Medium,TL0140942835,30,0,22,8,-0.52177902952333,52.0746033004121,,,MARSTON MORETEYNE,Bedfordshire,MK43 9LY,NA,1997-04-01,COLD,2020-04-22,ELP03607005-R01,0.78Ω 0.00Deg,0.07,2036-01-07,501409,242835,NA,NA,NA,NA,NA,"52.0746033004121,-0.52177902952333",Bedford,E06000055
EPN-S0000000G4091,Eastern Power Networks (EPN),WATERLOO SOLAR FARM 33kV,Primary Substation,33,High,TL1793251791,27,0,24,3,-0.277706326413954,52.1518175211974,WATERLOO SOLAR FARM TEMPSFORD ROAD,EVERTON,,Bedfordshire,SG19 2JW,NA,2013-04-01,NA,,NA,NA,,2033-01-11,517932,251791,NA,NA,NA,NA,NA,"52.1518175211974,-0.277706326413954",Central Bedfordshire,E06000056
EPN-S0000000G4140,Eastern Power Networks (EPN),MANOR FM SOLAR PERTENHALL,Primary Substation,33,Low,TL0771964678,29,0,27,2,-0.422820734857255,52.2697170389431,GREEN END,PERTENHALL,BEDFORD,Bedfordshire,MK44 2AX,NA,2014-04-01,NA,,NA,NA,,2033-01-11,507719,264678,NA,NA,NA,NA,NA,"52.2697170389431,-0.422820734857255",Bedford,E06000055
EPN-S0000000G4148,Eastern Power Networks (EPN),ELEAN SWITCHING STATION,Primary Substation,33,Low,TL4528679717,112,0,99,13,0.133850908480444,52.3961947617973,CAMERO DATA CENTRE ELEAN BUSINESS PARK,SUTTON,ELY,Cambridgeshire,CB6 2QE,NA,2016-04-01,NA,,NA,NA,,2025-01-15,545286,279717,NA,NA,NA,NA,NA,"52.3961947617973,0.133850908480444",East Cambridgeshire,E07000009
EPN-S0000000G4165,Eastern Power Networks (EPN),CHEAR FARM CHP GENERATION 33KV,Primary Substation,33,Low,TL5081571704,26,0,23,3,0.211448564651103,52.322716575561,FENLAND GLASSHOUSE CAMBRIDGE RD,,"STRETHAM, ELY",NA,CB6 3LF,NA,2021-12-07,COLD,,DG-EDCR-5100938,0.55Ω 0.00Deg,,2037-12-09,550815,271704,NA,NA,NA,NA,NA,"52.322716575561,0.211448564651103",East Cambridgeshire,E07000009
EPN-S0000000G5001,Eastern Power Networks (EPN),AVENUE SOLAR FARM 33kV,Primary Substation,33,Low,TG2954502819,25,0,23,2,1.38620314921195,52.5747123768325,BACK ROAD,YELVERTON,NORWICH,Norfolk,NR14 7PF,NA,2014-04-01,COLD,2014-10-09,ESL0358-R02,0.21Ω 30.00Deg,,2033-01-11,629545,302819,NA,NA,NA,NA,NA,"52.5747123768325,1.38620314921195",South Norfolk,E07000149
EPN-S0000000G5007,Eastern Power Networks (EPN),LAXFIELD PRIMARY 33kV,Primary Substation,33,Medium,TM2826273760,63,0,33,30,1.34745684684707,52.3144598435075,,,LAXFIELD,Suffolk,IP13 8EW,1958,1954-04-01,HOT,2015-11-16,ESL0951037-R01 RC,0.42Ω 0.00Deg,0.34,2031-01-15,628262,273760,"15, 6","12, 5",<100%,NA,NA,"52.3144598435075,1.34745684684707",Mid Suffolk,E07000203
EPN-S0000000G5008,Eastern Power Networks (EPN),PEASENHALL PRIMARY 33kV,Primary Substation,33,High,TM3526969633,50,0,21,29,1.44717944697673,52.2744691654843,,,PEASENHALL,Suffolk,IP17 2LH,1968,1936-04-01,HOT,2013-12-19,P-13-3250-01,NA,0.21,2031-01-15,635269,269633,"7, 7","5, 5",100%,NA,NA,"52.2744691654843,1.44717944697673",East Suffolk,E07000244
EPN-S0000000G5009,Eastern Power Networks (EPN),LSE PRIMARY 33kV,Primary Substation,33,High,TG2436107741,38,0,37,1,1.31317218448742,52.6210473598347,,,NORWICH NR1,Norfolk,NR1 1YP,1968,1968-04-01,HOT,2014-08-05,ESL0042-040,0.21Ω 0.00Deg,,2029-01-11,624361,307741,NA,NA,NA,NA,NA,"52.6210473598347,1.31317218448742",Norwich,E07000148
EPN-S0000000G5013,Eastern Power Networks (EPN),UPPER HOLTON WIND FARM 33kV,Primary Substation,33,Low,TM3986079445,26,0,22,4,1.52132807398453,52.3605328721812,UPPER HOLTON WIND FM FORMER AIRFIELD,UPPER HOLTON,HALESWORTH,Suffolk,IP19 8NH,NA,2014-04-01,NA,,NA,NA,,2033-01-11,639860,279445,NA,NA,NA,NA,NA,"52.3605328721812,1.52132807398453",East Suffolk,E07000244
EPN-S0000000G5016,Eastern Power Networks (EPN),EAST DEREHAM PRIMARY 33kV,Primary Substation,33,High,TF9915213745,64,0,45,19,0.944936567519675,52.6847741484849,,,EAST DEREHAM,Norfolk,NR19 2HN,1951,1938-04-01,COLD,2013-10-01,P-13-3063-01,0.11Ω 0.00Deg,,2028-01-11,599152,313745,"38, 38","29, 29",<100%,NA,NA,"52.6847741484849,0.944936567519675",Breckland,E07000143
EPN-S0000000G5027,Eastern Power Networks (EPN),BENHALL PRIMARY 33kV,Primary Substation,33,High,TM3712562517,44,0,30,14,1.46934180667966,52.2098149308016,,,BENHALL,Suffolk,IP17 1JJ,1971,1936-04-01,HOT,2012-03-27,P-12-1567-01,NA,0.45,2031-01-15,637125,262517,"13, 13","10, 10",100%,NA,NA,"52.2098149308016,1.46934180667966",East Suffolk,E07000244
EPN-S0000000G5030,Eastern Power Networks (EPN),ELLOUGH AIRFIELD SOLAR FARM 33kV,Primary Substation,33,Medium,TM4571387710,27,0,23,4,1.61316530719721,52.4320982661369,ELLOUGH AIRFIELD,ELLOUGH,BECCLES,Norfolk,NR34 7TE,NA,2012-04-01,NA,,NA,NA,,2033-01-11,645713,287710,NA,NA,NA,NA,NA,"52.4320982661369,1.61316530719721",East Suffolk,E07000244
EPN-S0000000G5033,Eastern Power Networks (EPN),HALL SOLAR FARM,Primary Substation,33,Low,TM1955595266,28,0,22,6,1.23404104634343,52.5110413344004,HALL SOLAR FARM,TASBURGH,NORWICH,Norfolk,NR15 1NA,NA,2021-06-24,NA,,NA,NA,,2037-07-09,619555,295266,NA,NA,NA,NA,NA,"52.5110413344004,1.23404104634343",South Norfolk,E07000149
EPN-S0000000G5041,Eastern Power Networks (EPN),AYLSHAM PRIMARY 33kV,Primary Substation,33,High,TG2033927718,40,0,30,10,1.26723801339327,52.8019872415179,,,AYLSHAM,Norfolk,NR11 6SU,1967,1967-04-01,HOT,2016-06-21,ESL1519008-R01,1.03Ω 0.00Deg,0.3,2028-01-15,620339,327718,"15, 15","12, 12",<100%,NA,NA,"52.8019872415179,1.26723801339327",Broadland,E07000144
EPN-S0000000G5045,Eastern Power Networks (EPN),HEMBLINGTON PRIMARY 33kV,Primary Substation,33,Very High,TG3347611939,39,0,24,15,1.4505388381254,52.6548788015711,,,HEMBLINGTON,Norfolk,NR13 4QB,1966,1966-04-01,HOT,2016-07-01,ESL1519006-R01,2.72Ω 0.00Deg,0.47,2030-01-15,633476,311939,"24, 24","18, 18",100%,NA,NA,"52.6548788015711,1.4505388381254",Broadland,E07000144
EPN-S0000000G5048,Eastern Power Networks (EPN),WORSTEAD PRIMARY 33KV,Primary Substation,33,High,TG29502490,41,0,39,2,1.40090902751925,52.7728837833263,WORSTEAD PRIMARY 33K,ROSS FOODS WEIGHBRIDGE,WORSTEAD,Norfolk,NR28 9RX,NA,2014-04-01,COLD,2010-07-15,P-10-696-44,NA,0.22,2030-01-11,629500,324900,24,18,100%,NA,NA,"52.7728837833263,1.40090902751925",North Norfolk,E07000147
EPN-S0000000G5054,Eastern Power Networks (EPN),RAF COLTISHALL SOLAR FARM 33kV,Primary Substation,33,High,TG2639623397,37,0,35,2,1.35394093103121,52.7607047364383,RAF COLTISHALL SOLAR BARTON ROAD (ON AIR BASE),COLTISHALL,NORWICH,Norfolk,NR12 7JU,NA,2014-04-01,NA,,NA,NA,,2033-01-11,626396,323397,NA,NA,NA,NA,NA,"52.7607047364383,1.35394093103121",North Norfolk,E07000147
EPN-S0000000G5058,Eastern Power Networks (EPN),NORTH WALSHAM SW STN 33kV,Primary Substation,33,High,TG2870828435,170,0,163,7,1.39165866202868,52.8049416436805,,,NORTH WALSHAM,Norfolk,NR28 0DS,1966,1966-04-01,HOT,2014-08-27,ESL0343011-R02 RA,4.60Ω 0.00Deg,1.2,2029-01-11,628708,328435,NA,NA,NA,NA,NA,"52.8049416436805,1.39165866202868",North Norfolk,E07000147
EPN-S0000000G5059,Eastern Power Networks (EPN),SCOTTOW PRIMARY 33kV,Primary Substation,33,High,TG2615923778,46,0,32,14,1.35069762878721,52.7642230573452,,,SCOTTOW,Norfolk,NR10 5DF,1975,1975-04-01,HOT,2010-07-15,P-10-696-43,NA,0.42,2029-01-15,626159,323778,"15, 15","12, 12",100%,NA,NA,"52.7642230573452,1.35069762878721",North Norfolk,E07000147
EPN-S0000000G5074,Eastern Power Networks (EPN),BEIGHTON PRIMARY 33kV,Primary Substation,33,High,TG3798408512,41,0,25,16,1.51458678955476,52.622171507653,,,BEIGHTON,Norfolk,NR13 3JX,1991,1966-04-01,HOT,2014-08-29,ESL0343001-R02 RA,1.59Ω 0.00Deg,1.19,2029-01-15,637984,308512,"15, 15","12, 12",6.5MVA,NA,NA,"52.622171507653,1.51458678955476",Broadland,E07000144
EPN-S0000000G5075,Eastern Power Networks (EPN),CRINGLEFORD PRIMARY 33kV,Primary Substation,33,Very High,TG1971205810,33,0,23,10,1.24332887390156,52.6056153669779,,,CRINGLEFORD,Norfolk,NR4 6UE,1975,1963-04-01,HOT,2016-06-22,ESL1519005-R01,2.90Ω 0.00Deg,0.2,2029-01-15,619712,305810,"18, 18","14, 14",<100%,NA,NA,"52.6056153669779,1.24332887390156",South Norfolk,E07000149
EPN-S0000000G5079,Eastern Power Networks (EPN),HAPTON PRIMARY 33kV,Primary Substation,33,Very High,TM17989629,55,0,41,14,1.21154151277733,52.5208640181864,,,THARSTON,Norfolk,NR15 1SN,1959,1959-04-01,HOT,2008-11-26,P-08-502-8,NA,0.32,2029-01-15,617980,296290,"24, 24","11, 11",100%,NA,NA,"52.5208640181864,1.21154151277733",South Norfolk,E07000149
EPN-S0000000G5081,Eastern Power Networks (EPN),REYDON SOLAR FARM 33kV,Primary Substation,33,Medium,TM4859277608,22,0,20,2,1.64793645115335,52.3401644962402,,REYDON,SOUTHWOLD,Suffolk,IP18,NA,2013-04-01,NA,,NA,NA,,2033-01-11,648592,277608,NA,NA,NA,NA,NA,"52.3401644962402,1.64793645115335",East Suffolk,E07000244
EPN-S0000000G5149,Eastern Power Networks (EPN),STONEHOUSE SOLAR FARM,Primary Substation,33,Medium,TG2972415549,50,0,48,2,1.39768674214554,52.6888752834615,PADMOUNT TX STONEHOUSE SOLAR FM,STONEHOUSE ROAD,,Norfolk,NR13 6EZ,NA,2015-04-01,NA,,NA,NA,,2033-01-11,629724,315549,NA,NA,NA,NA,NA,"52.6888752834615,1.39768674214554",Broadland,E07000144
EPN-S0000000G5161,Eastern Power Networks (EPN),SNETTERTON BIOMASS,Primary Substation,33,Medium,TM0058191103,37,0,30,7,0.952347329262496,52.4809719833442,CHALK LANE,SNETERTON HEATH,NORWICH,Norfolk,NR16 2JZ,NA,2016-04-01,NA,,NA,NA,,2033-01-11,600581,291103,NA,NA,NA,NA,NA,"52.4809719833442,0.952347329262496",Breckland,E07000143
EPN-S0000000G6004,Eastern Power Networks (EPN),EGMERE PRIMARY 33kV,Primary Substation,33,High,TF90463813,3,0,2,1,0.830703744431929,52.9068390516707,FAKENHAM ROAD,EGMERE,GREAT WALSINGHAM,Norfolk,NR22 6AY,NA,2015-04-01,HOT,2013-11-06,P-13-2989-02,NA,0.31,2030-01-15,590460,338130,7,5,100%,NA,NA,"52.9068390516707,0.830703744431929",North Norfolk,E07000147
EPN-S0000000G6005,Eastern Power Networks (EPN),FUNTHAMS LN PRIMARY 33kV,Primary Substation,33,Medium,TL2398096994,13,0,7,6,-0.172676857653456,52.5566710951675,,,WHITTLESEY,Cambridgeshire,PE7 2PB,2009,1981-04-01,COLD,2011-07-21,P-11-1152,NA,0.06,2028-01-15,523980,296994,"24, 24","18, 18",100%,NA,NA,"52.5566710951675,-0.172676857653456",Fenland,E07000010
EPN-S0000000G6017,Eastern Power Networks (EPN),FARCET PRIMARY 33kV,Primary Substation,33,Very High,TL1983794651,35,0,24,11,-0.234600722559993,52.536544920165,,,FARCET,Cambridgeshire,PE7 3BJ,1975,1962-04-01,HOT,2021-06-14,ELP05795-R01,0.36Ω 0.00Deg,0.14,2028-01-15,519837,294651,"24, 24","19, 19",<100%,NA,NA,"52.536544920165,-0.234600722559993",Huntingdonshire,E07000011
EPN-S0000000G6022,Eastern Power Networks (EPN),COLDHAM WIND FARM 33kV,Primary Substation,33,Low,TF4603000388,27,0,25,2,0.153832410405357,52.5816972848761,,,COLDHAM,Cambridgeshire,UNK,NA,2005-04-01,HOT,2009-03-13,P-08-502-41,0.67Ω 0.00Deg,,2033-01-11,546030,300388,NA,NA,NA,NA,NA,"52.5816972848761,0.153832410405357",Fenland,E07000010
EPN-S0000000G6028,Eastern Power Networks (EPN),RANSONMOOR WINDFARM 33kV,Primary Substation,33,Low,TL3755492012,20,0,18,2,0.0253547534835693,52.5086535836383,BENWICK ROAD,,DODDINGHAM,Cambridgeshire,PE15 0UD,NA,2006-04-01,NA,,NA,NA,,2033-01-11,537554,292012,NA,NA,NA,NA,NA,"52.5086535836383,0.0253547534835693",Fenland,E07000010
EPN-S0000000G6031,Eastern Power Networks (EPN),WISSINGTON BSC 33kV,Primary Substation,33,Medium,TL6589697555,218,0,188,30,0.445346402533479,52.5505601308558,,,WISSINGTON,Norfolk,PE33 9QG,1997,1996-04-01,HOT,2014-08-05,ESL0042-007,0.28Ω 0.00Deg,,2028-01-11,565896,297555,NA,NA,NA,NA,NA,"52.5505601308558,0.445346402533479",King's Lynn and West Norfolk,E07000146
EPN-S0000000G6032,Eastern Power Networks (EPN),BOARDINGHOUSE WIND FARM 33kV,Primary Substation,33,Low,TL3826193666,33,0,25,8,0.0364519698074689,52.5233348250703,KNIGHTS END ROAD,MARCH,PETERBOROUGH,Cambridgeshire,PE15 0YN,NA,2014-04-01,COLD,2014-05-22,VP01338.015,0.11Ω 42.53Deg,,2033-01-11,538261,293666,NA,NA,NA,NA,NA,"52.5233348250703,0.0364519698074689",Fenland,E07000010
EPN-S0000000G6034,Eastern Power Networks (EPN),GLASSMOOR 2 WINDFARM 33kV,Primary Substation,33,Low,TL2969392276,29,0,22,7,-0.0902980056296623,52.5129504516133,GLASSMOOR 2 WINDFARM OILMILLS ROAD,WHITTLESEY,PETERBOROUGH,Cambridgeshire,PE26 2TT,NA,2012-04-01,NA,,NA,NA,,2033-01-11,529693,292276,NA,NA,NA,NA,NA,"52.5129504516133,-0.0902980056296623",Fenland,E07000010
EPN-S0000000G6054,Eastern Power Networks (EPN),EGMERE AIRFIELD SOLAR FARM 33kV,Primary Substation,33,Medium,TF9033938124,22,0,14,8,0.828903350750788,52.9068280110548,B1105,EGMERE,LITTLE WALSINGHAM,Norfolk,NR22 6AZ,NA,2013-04-01,NA,,NA,NA,,2033-01-11,590339,338124,NA,NA,NA,NA,NA,"52.9068280110548,0.828903350750788",North Norfolk,E07000147
EPN-S0000000G6056,Eastern Power Networks (EPN),JACKS LANE WIND FARM 33kV,Primary Substation,33,Low,TF8184834984,27,0,19,8,0.701044086675089,52.8815706119718,JACKS LANE WIND FARM BARWICK ROAD,SOUTH CREAKE,FAKENHAM,Norfolk,PE31 9PZ,NA,2014-04-01,NA,,NA,NA,,2033-01-11,581848,334984,NA,NA,NA,NA,NA,"52.8815706119718,0.701044086675089",King's Lynn and West Norfolk,E07000146
EPN-S0000000G6059,Eastern Power Networks (EPN),NARBOROUGH PRIMARY 33kV,Primary Substation,33,High,TF7435614427,15,0,15,0,0.578884055622165,52.6994403764847,,,NARBOROUGH,Norfolk,PE32 1HX,NA,1957-04-01,HOT,,ESL1519004-R01 RA,0.95Ω 0.00Deg,,,574356,314427,NA,NA,NA,NA,NA,"52.6994403764847,0.578884055622165",King's Lynn and West Norfolk,E07000146
EPN-S0000000G6061,Eastern Power Networks (EPN),BURNHAM THORPE PRIMARY 33kV,Primary Substation,33,High,TF8553042200,43,0,25,18,0.759812897427366,52.9451060213844,,,BURNHAM THORPE,Norfolk,PE31 8HL,1960,1959-04-01,HOT,2015-11-12,ESL0951044-R01 RB,1.58Ω 0.00Deg,0.83,2030-01-15,585530,342200,"15, 15","11, 11",100%,NA,NA,"52.9451060213844,0.759812897427366",King's Lynn and West Norfolk,E07000146
EPN-S0000000G6063,Eastern Power Networks (EPN),GLASSMOOR WINDFARM 33kV,Primary Substation,33,Low,TL2869891200,32,0,24,8,-0.105367248431112,52.5035181841991,N/A,,PETERBOROUGH,Cambridgeshire,PE7 2LT,NA,2005-04-01,COLD,2013-11-06,P-13-3056-01,NA,0.08,2033-01-11,528698,291200,NA,NA,NA,NA,NA,"52.5035181841991,-0.105367248431112",Fenland,E07000010
EPN-S0000000G6143,Eastern Power Networks (EPN),ROSE AND CROWN SOLAR FARM,Primary Substation,33,Low,TF4847015365,35,0,30,5,0.196549546083642,52.7155772126239,ROSE AND CROWN SOLAR MILL ROAD,INGLEBOROUGH,WALPOLE ST ANDREW,Norfolk,PE14 7JB,NA,2016-04-01,NA,,NA,NA,,2033-01-11,548470,315365,NA,NA,NA,NA,NA,"52.7155772126239,0.196549546083642",King's Lynn and West Norfolk,E07000146
EPN-S0000000G6171,Eastern Power Networks (EPN),THORNHAM SOLAR FARM,Primary Substation,33,Low,TF7382040705,51,0,44,7,0.584931433694299,52.9355978699662,"THORNHAM SOLAR FARM, RINGHEAD ROAD,",,"THORNHAM, NORFOLKM",NA,PE36 5LQ,NA,2021-08-06,NA,,NA,NA,,2037-12-12,573820,340705,NA,NA,NA,NA,NA,"52.9355978699662,0.584931433694299",King's Lynn and West Norfolk,E07000146
EPN-S0000000G7003,Eastern Power Networks (EPN),BASILDON LOCAL PRIMARY 33kV,Primary Substation,33,High,TQ7235888150,25,0,17,8,0.485384847330187,51.5658836055386,,,BASILDON SOUTH,Essex,SS16 4NW,1972,1972-04-01,COLD,2020-12-02,ELP03607041-R01,0.12Ω 0.00Deg,0.05,2036-01-15,572358,188150,"23, 23","17, 17",<100%,NA,NA,"51.5658836055386,0.485384847330187",Basildon,E07000066
EPN-S0000000G7012,Eastern Power Networks (EPN),OUTWOOD SOLAR FARM,Primary Substation,33,Low,TQ7022593965,36,0,29,7,0.457458999261284,51.6187674351735,CHURCH ROAD,CRAYS HILL,BILLERICAY,Essex,CM11 2UN,NA,2013-04-01,NA,,NA,NA,,2032-01-11,570225,193965,NA,NA,NA,NA,NA,"51.6187674351735,0.457458999261284",Basildon,E07000066
EPN-S0000000G7020,Eastern Power Networks (EPN),THORLEY PRIMARY 33kV,Primary Substation,33,Very High,TL4862918779,27,0,10,17,0.15635162799378,51.8478276503855,,,THORLEY,Hertfordshire,CM23 4AS,1975,1957-04-01,COLD,2022-09-06,ELP07260033-R01,1.34Ω 0.00Deg,0.14,2038-01-15,548629,218779,"24, 24","18, 18","100%,  <100%",NA,NA,"51.8478276503855,0.15635162799378",East Hertfordshire,E07000242
EPN-S0000000G7031,Eastern Power Networks (EPN),ROYSTON PRIMARY 33kV,Primary Substation,33,High,TL3573641170,73,0,45,28,-0.0218654411088383,52.0523012500234,,,ROYSTON,Hertfordshire,SG8 7DD,1973,1955-04-01,COLD,2007-08-24,EM-07-187,NA,0.1,2026-01-15,535736,241170,"23, 23, 23","18, 18, 18","<100%, 100%",NA,NA,"52.0523012500234,-0.0218654411088383",North Hertfordshire,E07000099
EPN-S0000000G7045,Eastern Power Networks (EPN),HODDESDON PRIMARY 33kV,Primary Substation,33,High,TL3743808788,23,0,6,17,-0.00996387484205484,51.7609177393444,,,HODDESDON,Hertfordshire,EN11 8HF,1965,1963-04-01,COLD,2014-08-12,ESL0042-030,0.18Ω 0.00Deg,,2024-01-15,537438,208788,"26, 26","20, 20",100%,NA,NA,"51.7609177393444,-0.00996387484205484",Broxbourne,E07000095
EPN-S0000000G7051,Eastern Power Networks (EPN),MS AND D HODDESDON INTAKE 33kV,Primary Substation,33,Medium,TL3679509350,41,0,37,4,-0.0190536878829427,51.7661249835786,MERCK SHARP & DOHME HERTFORD ROAD,,HODDESDON,Hertfordshire,EN11 8QZ,2003,2003-04-01,COLD,2015-10-06,ESL0951021-R01,0.55Ω 0.00Deg,,2024-01-11,536795,209350,NA,NA,NA,NA,NA,"51.7661249835786,-0.0190536878829427",Broxbourne,E07000095
EPN-S0000000G7062,Eastern Power Networks (EPN),COOPERS END PRIMARY 33kV,Primary Substation,33,Medium,TL5542823107,40,0,35,5,0.256922843888867,51.8848602738811,OFF THREMHALL AVENUE,,STANSTED MOUNTFITCHET,Essex,CM24,2008,2007-04-01,COLD,2015-10-06,ESL0951015-R01,0.38Ω 0.00Deg,,2038-01-07,555428,223107,NA,NA,NA,NA,NA,"51.8848602738811,0.256922843888867",Uttlesford,E07000077
EPN-S0000000G7076,Eastern Power Networks (EPN),NORTH HARLOW 33kV,Primary Substation,33,Medium,TL4567511233,241,0,214,27,0.110327734727461,51.7808057904756,,,HARLOW,Essex,CM20 2AB,2010,1963-04-01,COLD,2012-10-17,P-12-2059-01,0.12Ω 0.00Deg,,2024-01-11,545675,211233,NA,NA,NA,NA,NA,"51.7808057904756,0.110327734727461",Harlow,E07000073
EPN-S0000000G7121,Eastern Power Networks (EPN),BARKING WEST,Grid Substation,132,Low,TQ4629181830,292,0,276,16,0.106964056610493,51.5164558877335,RIVER ROAD,BARKING,BARKING,Essex,IG11 0DS,1985,1985-04-01,HOT,2021-11-18,ELP05282041-R01,0.25Ω 0.00Deg,0.05,2037-01-07,546291,181830,NA,NA,NA,NA,NA,"51.5164558877335,0.106964056610493",Barking and Dagenham,E09000002
EPN-S0000000G7123,Eastern Power Networks (EPN),CHERRY GRN PRIMARY 33kV,Primary Substation,33,High,TL3574326602,62,0,39,23,-0.0275237367454972,51.9214007090498,,,WESTMILL,Hertfordshire,SG9 9NW,1960,1956-04-01,HOT,2016-08-09,ESL1519020-R01 RA,0.54Ω 0.00Deg,0.3,2026-01-15,535743,226602,"15, 10","11, 8",<100%,NA,NA,"51.9214007090498,-0.0275237367454972",East Hertfordshire,E07000242
EPN-S0000000G7128,Eastern Power Networks (EPN),PLA,Primary Substation,33,Low,TQ6332976326,34,0,25,9,0.349761923576813,51.4623437390649,DOCK ROAD,TILBURY DOCKS,TILBURY,Essex,RM18 7EH,1969,1969-04-01,COLD,2010-12-01,P-10-696-148,0.15Ω 0.00Deg,,2023-01-11,563329,176326,NA,NA,NA,NA,NA,"51.4623437390649,0.349761923576813",Thurrock,E06000034
EPN-S0000000G7136,Eastern Power Networks (EPN),UK PIPELINES,Primary Substation,33,High,TQ7385582414,45,0,32,13,0.504130587767359,51.5138991204174,MANOR WAY,CORRINGHAM,STANFORD LE HOPE,Essex,SS17 9LW,1956,1956-04-01,COLD,2014-01-24,P-14-3353-01,0.42Ω 0.00Deg,,2023-01-11,573855,182414,NA,NA,NA,NA,NA,"51.5138991204174,0.504130587767359",Thurrock,E06000034
EPN-S0000000G7138,Eastern Power Networks (EPN),WISBRIDGE SOLAR SWITCHROOM,Primary Substation,33,Medium,TL3591235594,29,0,28,1,-0.0215130819000475,52.0021562231798,REED HALL CHURCH LANE,REED,ROYSTON,Hertfordshire,SG8 8AP,NA,2014-04-01,COLD,2014-02-13,ERM R1079,0.31Ω 2.53Deg,0.09,2032-01-11,535912,235594,NA,NA,NA,NA,NA,"52.0021562231798,-0.0215130819000475",North Hertfordshire,E07000099
EPN-S0000000G7140,Eastern Power Networks (EPN),BURY ST PRIMARY 33kV,Primary Substation,33,Medium,TQ3346694454,51,0,20,31,-0.0729610769747581,51.6330714639769,,,EDMONTON N9,Greater London,N9 9LD,NA,1959-04-01,COLD,2018-05-31,ELP0061003-R01,41.30Ω 0.00Deg,0.13,2034-01-15,533466,194454,"18, 18","15, 15",100%,NA,NA,"51.6330714639769,-0.0729610769747581",Enfield,E09000010
EPN-S0000000G7160,Eastern Power Networks (EPN),WATSONS RD PRIMARY 33kV,Primary Substation,33,Medium,TQ3082190495,23,0,5,18,-0.112632331958098,51.5981150224203,,,WOOD GREEN,Greater London,N22 8HR,NA,1969-04-01,COLD,2018-07-25,ELP0061015-R01,0.38Ω 0.00Deg,0.07,2034-01-15,530821,190495,NA,NA,NA,NA,NA,"51.5981150224203,-0.112632331958098",Haringey,E09000014
EPN-S0000000G7177,Eastern Power Networks (EPN),AVELEY SWITCHING STN,Primary Substation,33,Medium,TQ5539079371,5,0,2,3,0.236912738028575,51.4919354103225,,,AVELEY,Essex,UNKNOWN,1999,1999-04-01,COLD,2021-08-17,ELP05282036-R01,4.63Ω 0.00Deg,0.08,2037-01-19,555390,179371,NA,NA,NA,NA,NA,"51.4919354103225,0.236912738028575",Thurrock,E06000034
EPN-S0000000G7200,Eastern Power Networks (EPN),LEA VALLEY RD CHINGFORD,Primary Substation,33,High,TQ38749444,2,0,2,0,0.00318763956715556,51.631670926296,,,CHINGFORD,Greater London,E4 7BE,NA,2021-07-19,NA,,NA,NA,,2037-12-12,538740,194440,NA,NA,NA,NA,NA,"51.631670926296,0.00318763956715556",Waltham Forest,E09000031
EPN-S0000000G7202,Eastern Power Networks (EPN),ASHINGDON SOLAR PARK,Primary Substation,33,Low,TQ8689194621,59,0,49,10,0.698270030310112,51.6193770202254,ASHINGDON SOLAR PARK FAMBRIDGE ROAD,,ASHINGDON,Essex,SS4 3LW,2015,2015-04-01,NA,,NA,NA,,2032-01-11,586891,194621,NA,NA,NA,NA,NA,"51.6193770202254,0.698270030310112",Rochford,E07000075
EPN-S0000000G7222,Eastern Power Networks (EPN),MOWLEM TRADING ESTATE,Primary Substation,33,Medium,TQ3520691387,37,0,24,13,-0.0490180323460032,51.6050961099268,"UK POWER RESERVE, WATERMEAD WAY",,"TOTTENHAM, LONDON",NA,N17 0UN,NA,2016-04-01,COLD,2018-10-16,ELP0061039-R01,2.50Ω 0.00Deg,0.06,2034-01-07,535206,191387,NA,NA,NA,NA,NA,"51.6050961099268,-0.0490180323460032",Haringey,E09000014
EPN-S0000000G7230,Eastern Power Networks (EPN),NEVENDON BATTERY PARK,Primary Substation,33,Low,TQ7228291321,34,0,31,3,0.485843834511732,51.5943915130025,"NEVENDON BATTERY PARK, GARDINERS LANE NORTH,",,"BASILDON, ESSEX,",NA,CM11 2XE,NA,2016-04-01,NA,,NA,NA,,2036-05-28,572282,191321,NA,NA,NA,NA,NA,"51.5943915130025,0.485843834511732",Basildon,E07000066
EPN-S0000000G7232,Eastern Power Networks (EPN),OUTWOOD SOLAR FARM 2.,Primary Substation,33,Medium,TQ7024093929,32,0,30,2,0.457657979172317,51.6184395141974,"OUTWOOD PHASE 2 SOLAR FARM, CHURCH LANE,",,"BILLERICAY, ESSEX,",NA,CM11 2TX,NA,2022-07-14,NA,,NA,NA,,2036-05-28,570240,193929,NA,NA,NA,NA,NA,"51.6184395141974,0.457657979172317",Basildon,E07000066
EPN-S0000000G7237,Eastern Power Networks (EPN),HUTTON BATTERY STORAGE,Primary Substation,33,Medium,TQ6327196200,22,0,15,7,0.358145075751175,51.6409043635952,WASH ROAD,,BRENTWOOD,NA,CM13 1UN,NA,2019-04-01,NA,,NA,NA,,2037-12-12,563271,196200,NA,NA,NA,NA,NA,"51.6409043635952,0.358145075751175",Brentwood,E07000068
EPN-S0000000G8011,Eastern Power Networks (EPN),EASTCOTE PRIMARY 33kV,Primary Substation,33,High,TQ1108287573,70,0,18,52,-0.398412600080574,51.5760873022063,,,EASTCOTE,Middlesex,HA4 9UU,1966,1965-04-01,COLD,2019-06-13,ELP02011023-R01,0.67Ω 0.00Deg,0.06,2035-01-15,511082,187573,"38, 38","29, 29",<100%,NA,NA,"51.5760873022063,-0.398412600080574",Hillingdon,E09000017
EPN-S0000000G8027,Eastern Power Networks (EPN),CAPABILITY GREEN PRIMARY 33kV,Primary Substation,33,Medium,TL0959920008,32,0,4,28,-0.409608692295651,51.8678925929702,,CAPABILITY GREEN,LUTON,Bedfordshire,LU1 3LU,2002,1992-04-01,COLD,2020-10-19,ELP03607024-R01,1.63Ω 0.00Deg,0.16,2036-01-15,509599,220008,"24, 24","18, 18",100%,NA,NA,"51.8678925929702,-0.409608692295651",Luton,E06000032
EPN-S0000000G8035,Eastern Power Networks (EPN),KINGS LANGLEY PRIMARY 33kV,Primary Substation,33,High,TL0723802704,60,0,24,36,-0.449228839039182,51.7128276217028,,,KINGS LANGLEY,Hertfordshire,WD4 8FG,2003,1964-04-01,COLD,2011-08-16,P-11-1247,NA,0.05,2032-01-15,507238,202704,"18, 18","15, 15",100%,NA,NA,"51.7128276217028,-0.449228839039182",Dacorum,E07000096
EPN-S0000000G8044,Eastern Power Networks (EPN),WARREN SPRINGS PRIMARY 33kV,Primary Substation,33,High,TL2381821846,28,0,17,11,-0.202539212016106,51.8814382839776,,,STEVENAGE SOUTH,Hertfordshire,SG3 6NL,1990,1960-04-01,COLD,2014-04-17,ESL0042-11456,NA,0.06,2026-01-15,523818,221846,"24, 24","18, 18",100%,NA,NA,"51.8814382839776,-0.202539212016106",Stevenage,E07000243
EPN-S0000000G8087,Eastern Power Networks (EPN),BOC THAME PRIMARY 33kV,Primary Substation,33,High,SP7200004855,58,0,44,14,-0.958709314218283,51.7377871759888,,,THAME,Oxfordshire,OX9 3RF,1984,1980-04-01,COLD,2019-08-23,ELP02011039-R01,0.95Ω 0.00Deg,0.08,2035-01-07,472000,204855,NA,NA,NA,NA,NA,"51.7377871759888,-0.958709314218283",South Oxfordshire,E07000179
EPN-S0000000G8102,Eastern Power Networks (EPN),SENTRUM,Primary Substation,33,Medium,TQ0895994883,47,0,31,16,-0.426766766656887,51.6422028186035,SENTRUM CAXTON WAY,WATFORD BUSINESS PARK,WATFORD,Hertfordshire,WD18 8RL,NA,2007-04-01,COLD,2015-10-06,ESL0951025-R01,0.48Ω 0.00Deg,,2032-01-11,508959,194883,NA,NA,NA,NA,NA,"51.6422028186035,-0.426766766656887",Watford,E07000103
EPN-S0000000G8104,Eastern Power Networks (EPN),TUNNEL PRIMARY 33kV,Primary Substation,33,Medium,TL2165208810,24,0,2,22,-0.238566741877522,51.7647639190061,,,HATFIELD SOUTH,Hertfordshire,AL10 9QZ,NA,1984-04-01,HOT,2019-07-29,ELP02011035-R01,3.03Ω 0.00Deg,0.25,2035-01-15,521652,208810,"24, 24, 24","18, 18, 18",100%,NA,NA,"51.7647639190061,-0.238566741877522",Welwyn Hatfield,E07000241
EPN-S0000000G8105,Eastern Power Networks (EPN),WEALDSTONE PRIMARY 33kV,Primary Substation,33,Medium,TQ1525489702,55,0,11,44,-0.337536588091575,51.5943851314632,,,WEALDSTONE,Greater London,HA3 5QZ,1963,1960-04-01,COLD,2019-06-04,NA,0.23Ω 0.00Deg,0.09,2035-01-07,515254,189702,"26, 26","20, 20",100%,NA,NA,"51.5943851314632,-0.337536588091575",Harrow,E09000015
EPN-S0000000G8137,Eastern Power Networks (EPN),GROVE MILL PRIMARY 33kV,Primary Substation,33,Medium,TQ0899098684,50,0,28,22,-0.425135110167416,51.6763595291829,,,WATFORD WD1,Hertfordshire,WD17 3TT,2011,1959-04-01,COLD,2011-08-16,P-11-1227,NA,0.14,2032-01-15,508990,198684,"15, 15","15, 15",Not Available,NA,NA,"51.6763595291829,-0.425135110167416",Watford,E07000103
EPN-S0000000G8170,Eastern Power Networks (EPN),WATER LN TEE POINT 33kV,Primary Substation,33,High,TQ1170896395,22,0,7,15,-0.386573725821062,51.6552534342642,,,WATFORD WD2,Hertfordshire,WD23 2EB,1965,1965-04-01,COLD,2014-08-20,ESL0111-010,0.77Ω 0.00Deg,,2032-01-15,511708,196395,NA,NA,NA,NA,NA,"51.6552534342642,-0.386573725821062",Watford,E07000103
EPN-S0000000G8248,Eastern Power Networks (EPN),LAWRENCE END PARK SOLAR,Primary Substation,33,Low,TL1347520610,29,0,28,1,-0.353141393423953,51.8725287725384,LAWRENCE END PARK DANE STREET,CHILTERN GREEN,LUTON,Bedfordshire,LU2 8PE,NA,2015-04-01,NA,,NA,NA,,2033-01-11,513475,220610,NA,NA,NA,NA,NA,"51.8725287725384,-0.353141393423953",North Hertfordshire,E07000099
EPN-S0000000G8249,Eastern Power Networks (EPN),BALDOCK RD GAS GENERATION,Primary Substation,33,Low,TL2370732989,32,0,27,5,-0.200148762662371,51.9815980160974,LETCHWORTH CUT S/S BALDOCK ROAD,,LETCHWORTH,Hertfordshire,SG6 2EN,NA,2016-04-01,NA,,NA,NA,,2026-01-11,523707,232989,NA,NA,NA,NA,NA,"51.9815980160974,-0.200148762662371",North Hertfordshire,E07000099
EPN-S0000000G8250,Eastern Power Networks (EPN),DRAYTON MEAD SOLAR FARM,Primary Substation,33,Low,SP8726615224,43,0,30,13,-0.735078890784418,51.8288266186199,DRAYTON MEAD S/FM GIB LANE,"""BIERTON, DRAYTON MEAD""",AYLESBURY,Buckinghamshire,HP22 5DY,NA,2016-04-01,NA,,NA,NA,,2032-01-11,487266,215224,NA,NA,NA,NA,NA,"51.8288266186199,-0.735078890784418",Buckinghamshire,E06000060
EPN-S0000000G8258,Eastern Power Networks (EPN),HERMITAGE SOLAR FARM 33KV,Primary Substation,33,Low,TL0430533087,32,0,30,2,-0.482508734416336,51.9864560014475,HERMITAGE SOLAR FARM GREENFIELD ROAD,,WESTONING,Bedfordshire,MK45 5JD,NA,2014-04-01,NA,,NA,NA,,2032-01-11,504305,233087,NA,NA,NA,NA,NA,"51.9864560014475,-0.482508734416336",Central Bedfordshire,E06000056
EPN-S0000000G8264,Eastern Power Networks (EPN),SWANLAND ROAD SOLAR FARM,Primary Substation,33,High,TL2292101514,34,0,27,7,-0.222761263027185,51.6989195645282,SWANLAND ROAD,,POTTERS BAR,NA,EN6 3BH,NA,2016-04-01,NA,,NA,NA,,2032-01-11,522921,201514,NA,NA,NA,NA,NA,"51.6989195645282,-0.222761263027185",Hertsmere,E07000098
EPN-S0000000G8267,Eastern Power Networks (EPN),CLAYHILL FARM,Primary Substation,33,Low,TL0444733234,32,0,29,3,-0.480396983735867,51.9877505207941,"HERMITAGE SOLAR FARM, GREENFIELD ROAD,",,"WESTONING, BEDFORD,",NA,MK45 5JD,NA,2017-04-01,NA,,NA,NA,,2026-01-11,504447,233234,NA,NA,NA,NA,NA,"51.9877505207941,-0.480396983735867",Central Bedfordshire,E06000056
EPN-S0000000G8282,Eastern Power Networks (EPN),BUMPERS 2 SOLAR FARM 33KV,Primary Substation,33,Medium,SP7606906048,29,0,26,3,-0.899533684159539,51.7479749062156,"ILMER LANE,",,"LONGWICK CUM ILMER, WYCOMBE, BUCKS",NA,HP27 9FX,NA,2018-04-01,NA,,NA,NA,,2037-12-12,476069,206048,NA,NA,NA,NA,NA,"51.7479749062156,-0.899533684159539",Buckinghamshire,E06000060
EPN-S0000000H1004,Eastern Power Networks (EPN),ELMSWELL PRIMARY 33/11kV,Primary Substation,33,Medium,TL98906443,111,2,97,14,0.9118303740073,52.2421042620797,,,ELMSWELL,Suffolk,IP30 9HG,NA,1958-04-01,HOT,2016-07-07,ESL1519015-R01,0.36Ω 0.00Deg,0.41,2027-01-15,598900,264430,NA,NA,NA,,,"52.2421042620797,0.9118303740073",Mid Suffolk,E07000203
EPN-S0000000H1008,Eastern Power Networks (EPN),TURRET LN PRIMARY 33/11kV,Primary Substation,33,Medium,TM16394429,106,2,104,2,1.15478240276937,52.0547206058684,,,IPSWICH CENTRAL,Suffolk,IP4 1DT,NA,1966-04-01,COLD,2013-07-02,P-13-2644-01,0.29Ω 0.00Deg,,2027-01-11,616390,244290,NA,NA,NA,,,"52.0547206058684,1.15478240276937",Ipswich,E07000202
EPN-S0000000H1014,Eastern Power Networks (EPN),DISS GRID 33/11kV,Primary Substation,33,High,TM11507950,148,2,135,13,1.10555613465987,52.3726957140022,,,DISS,Norfolk,IP22 4AU,NA,1960-04-01,COLD,2012-09-24,P-12-2032-01,NA,0.11,2029-01-15,611500,279500,NA,NA,NA,,,"52.3726957140022,1.10555613465987",South Norfolk,E07000149
EPN-S0000000H1016,Eastern Power Networks (EPN),OYSTERBED RD 33/11kV,Primary Substation,33,High,TM2679534752,93,2,73,20,1.29997011473919,51.9649532736597,,,FELIXSTOWE NORTH,Suffolk,IP11 0UD,1999,1997-04-01,COLD,2018-03-19,ESL0042-037-R02,0.20Ω 0.00Deg,0.05,2027-01-11,626795,234752,"9, 9","8, 8",100%,,,"51.9649532736597,1.29997011473919",East Suffolk,E07000244
EPN-S0000000H1017,Eastern Power Networks (EPN),MANOR ROAD PRIMARY 33/11kV,Primary Substation,33,High,TM25844981,108,2,92,16,1.29602655758309,52.1004993530862,,,HASKETON,Suffolk,IP13 6HY,NA,1957-04-01,COLD,2017-12-18,ESL1992040-R01,1.89Ω 0.00Deg,0.21,2027-01-15,625840,249810,NA,NA,NA,,,"52.1004993530862,1.29602655758309",East Suffolk,E07000244
EPN-S0000000H1019,Eastern Power Networks (EPN),SUDBURY PRIMARY 33/11kV,Primary Substation,33,High,TL88124210,109,2,106,3,0.741789737061406,52.045364857977,,,SUDBURY,Suffolk,CO10 2QF,1962,1956-04-01,COLD,2022-05-17,ELP07260013-R01,1.59Ω 0.00Deg,0.13,2038-01-07,588120,242100,NA,NA,NA,,,"52.045364857977,0.741789737061406",Babergh,E07000200
EPN-S0000000H1028,Eastern Power Networks (EPN),NEWMARKET PRIMARY 33/11kV,Primary Substation,33,High,TL6364463144,172,2,133,39,0.395362041424767,52.2421557496282,,,NEWMARKET,Suffolk,CB8 0NH,2007,2005-04-01,COLD,2017-05-18,ESL1992025-R01,2.84Ω 0.00Deg,0.07,2025-01-11,563644,263144,"24, 24","18, 18",100%,,,"52.2421557496282,0.395362041424767",West Suffolk,E07000245
EPN-S0000000H1033,Eastern Power Networks (EPN),TIVETSHALL PRIMARY 33/11kV,Primary Substation,33,High,TM15808720,83,2,71,12,1.17358086562589,52.4401378458545,,,TIVETSHALL ST MARGARET,Norfolk,NR15 2EG,NA,1983-04-01,HOT,2016-06-24,ESL1519009-R01,0.63Ω 0.00Deg,0.41,2029-01-11,615800,287200,NA,NA,NA,,,"52.4401378458545,1.17358086562589",South Norfolk,E07000149
EPN-S0000000H1034,Eastern Power Networks (EPN),BRANDON PRIMARY 33/11kV,Primary Substation,33,High,TL76418639,100,2,88,12,0.594335889936824,52.4469882311603,,,BRANDON,Suffolk,IP27 0SD,NA,1962-04-01,HOT,2012-08-21,ESL0343005-R02 RA,5.04Ω 0.00Deg,1.1,2031-01-11,576410,286390,NA,NA,NA,,,"52.4469882311603,0.594335889936824",West Suffolk,E07000245
EPN-S0000000H1035,Eastern Power Networks (EPN),GLEMSFORD PRIMARY 33/11kV,Primary Substation,33,High,TL8363946398,135,2,115,20,0.678834950674066,52.0854655224238,,,GLEMSFORD,Suffolk,CO10 7SS,1963,1950-04-01,COLD,2022-08-10,ELP07260028-R01,2.09Ω 0.00Deg,0.17,2038-01-07,583639,246398,"14, 14","11, 11",<100%,,,"52.0854655224238,0.678834950674066",Babergh,E07000200
EPN-S0000000H1036,Eastern Power Networks (EPN),HAVERHILL PRIMARY 33/11kV,Primary Substation,33,High,TL6709744999,184,2,154,30,0.436964304232843,52.0781357873045,,,HAVERHILL SOUTH,Suffolk,CB9 8NP,1970,1970-04-01,HOT,2022-07-28,ELP07260020-R01,0.56Ω 0.00Deg,,2038-01-07,567097,244999,"23, 23","17, 17",<100%,,,"52.0781357873045,0.436964304232843",West Suffolk,E07000245
EPN-S0000000H1044,Eastern Power Networks (EPN),FELTWELL PRIMARY 33/11kV,Primary Substation,33,High,TL7214490610,71,1,50,21,0.533808270080604,52.486248331702,,,FELTWELL,Norfolk,IP26 4DN,1989,1989-04-01,COLD,2016-07-22,ESL1519018-R01,0.92Ω 0.00Deg,0.22,2031-01-11,572144,290610,10,8,100%,,,"52.486248331702,0.533808270080604",King's Lynn and West Norfolk,E07000146
EPN-S0000000H1052,Eastern Power Networks (EPN),GROTON PRIMARY 33/11kV,Primary Substation,33,High,TL9586241496,119,2,117,2,0.854190839174079,52.0372622741427,,,GROTON,Suffolk,CO10 5ED,NA,1967-04-01,HOT,2010-08-31,P-10-696-69,NA,0.42,2038-01-07,595862,241496,NA,NA,NA,,,"52.0372622741427,0.854190839174079",Babergh,E07000200
EPN-S0000000H1060,Eastern Power Networks (EPN),DOCK RD PRIMARY 33/11kV,Primary Substation,33,High,TM2867733601,117,2,102,15,1.32655054208453,51.9538521006963,,,FELIXSTOWE SOUTH,Suffolk,IP11 3JB,1962,1962-04-01,HOT,2014-08-05,ESL0042-020,0.24Ω 0.00Deg,,2027-01-11,628677,233601,"23, 23","17, 17",100%,,,"51.9538521006963,1.32655054208453",East Suffolk,E07000244
EPN-S0000000H1061,Eastern Power Networks (EPN),DRINKSTONE PRIMARY 33/11kV,Primary Substation,33,High,TL95856122,121,2,109,12,0.865361205055409,52.2143741332448,,,DRINKSTONE,Suffolk,IP30 9SX,NA,1958-04-01,HOT,2017-06-20,ESL1992036-R01,0.36Ω 0.00Deg,0.31,2031-01-11,595850,261220,NA,NA,NA,,,"52.2143741332448,0.865361205055409",Mid Suffolk,E07000203
EPN-S0000000H1062,Eastern Power Networks (EPN),FORNHAM PRIMARY 33/11kV,Primary Substation,33,High,TL84926656,112,2,100,12,0.708490719934307,52.2661025267136,,,FORNHAM ST MARTIN,Suffolk,IP32 6NU,NA,1960-04-01,COLD,2017-06-15,ESL1992033-R01,1.70Ω 0.00Deg,0.19,2031-01-11,584920,266560,NA,NA,NA,,,"52.2661025267136,0.708490719934307",West Suffolk,E07000245
EPN-S0000000H1067,Eastern Power Networks (EPN),WRATTING PRIMARY 33/11kV,Primary Substation,33,High,TL69884764,102,2,89,13,0.478849550613589,52.1010114941632,,,LITTLE WRATTING,Suffolk,CB9 7UQ,NA,1962-04-01,COLD,2022-07-01,ELP07260021-R01,4.22Ω 0.00Deg,0.11,2038-01-07,569880,247640,NA,NA,NA,,,"52.1010114941632,0.478849550613589",West Suffolk,E07000245
EPN-S0000000H1072,Eastern Power Networks (EPN),FAGBURY RD PRIMARY 33/11kV,Primary Substation,33,High,TM2763434316,105,2,78,27,1.31187243411386,51.9606972555631,,,FELIXSTOWE SOUTH,Suffolk,IP11 4HQ,1963,1963-04-01,COLD,2018-03-19,ESL0042-021-R02,0.38Ω 0.00Deg,0.09,2027-01-11,627634,234316,"21, 21","18, 18",100%,,,"51.9606972555631,1.31187243411386",East Suffolk,E07000244
EPN-S0000000H3008,Eastern Power Networks (EPN),TAKELEY PRIMARY 33/11kV,Primary Substation,33,High,TL55762169,124,1,123,1,0.261103751488548,51.8720375539987,,,TAKELEY,Essex,CM22 6RJ,NA,1965-04-01,COLD,2010-08-31,P-10-696-66,NA,0.17,2026-01-11,555760,221690,NA,NA,NA,,,"51.8720375539987,0.261103751488548",Uttlesford,E07000077
EPN-S0000000H3014,Eastern Power Networks (EPN),BRAINTREE DEPOT PRIMARY 33/11kV,Primary Substation,33,High,TL7714523554,184,3,165,19,0.572372304518029,51.8824042477402,,,BRAINTREE EAST,Essex,CM7 9EU,1940,1940-04-01,COLD,2012-12-14,P-12-2100-01,0.13Ω 0.00Deg,,2025-01-11,577145,223554,"23, 20, 20","18, 15, 15","Not Available,  <100%",,,"51.8824042477402,0.572372304518029",Braintree,E07000067
EPN-S0000000H3020,Eastern Power Networks (EPN),PARSONS HEATH PRIMARY 33/11kV,Primary Substation,33,High,TM02242636,152,2,143,9,0.938141702019187,51.8990704453302,,,COLCHESTER EAST,Essex,CO4 3YN,NA,1966-04-01,COLD,2014-03-13,P-14-3462-01,0.17Ω 0.00Deg,,2027-01-11,602240,226360,NA,NA,NA,,,"51.8990704453302,0.938141702019187",Colchester,E07000071
EPN-S0000000H3022,Eastern Power Networks (EPN),WEST CHELMSFORD PRIMARY 33/11kV,Primary Substation,33,Medium,TL6959906332,127,2,113,14,0.454425943444458,51.7300485091979,,,CHELMSFORD WEST,Essex,CM1 2QT,1964,1963-04-01,COLD,2020-11-25,ELP03607035-R01,1.41Ω 0.00Deg,0.06,2036-01-07,569599,206332,"21, 21","18, 18",100%,,,"51.7300485091979,0.454425943444458",Chelmsford,E07000070
EPN-S0000000H3023,Eastern Power Networks (EPN),WHITE RODING PRIMARY 33/11kV,Primary Substation,33,High,TL5689313688,98,1,77,21,0.273921971573016,51.7998315339375,,,WHITE RODING,Essex,CM6 1RF,1964,1958-04-01,HOT,2014-09-05,ESL0042-053,NA,0.15,2026-01-11,556893,213688,15,8,100%,,,"51.7998315339375,0.273921971573016",Uttlesford,E07000077
EPN-S0000000H3028,Eastern Power Networks (EPN),FOXASH PRIMARY 33/11kV,Primary Substation,33,High,TM0793030856,127,2,109,18,1.02343554475614,51.9373446584528,,,LAWFORD,Essex,CO11 2JS,1953,1953-04-01,HOT,2015-02-03,ESL0343007-R02 RA,3.77Ω 0.00Deg,0.89,2027-01-11,607930,230856,"12, 12","10, 10",100%,,,"51.9373446584528,1.02343554475614",Tendring,E07000076
EPN-S0000000H3047,Eastern Power Networks (EPN),LANGHAM PRIMARY 33/11kV,Primary Substation,33,Very High,TM0241532407,115,2,88,27,0.944234898235961,51.9533026313802,,,LANGHAM,Essex,CO4 5QF,1968,1968-04-01,COLD,2013-11-26,P-13-3268-01,NA,0.07,2027-01-11,602415,232407,"15, 15","12, 12",<100%,,,"51.9533026313802,0.944234898235961",Colchester,E07000071
EPN-S0000000H3049,Eastern Power Networks (EPN),MARKS TEY PRIMARY 33/11kV,Primary Substation,33,High,TL9088523376,142,2,117,25,0.771662296345226,51.8762753945112,,,MARKS TEY,Essex,CO6 1XJ,1966,1966-04-01,COLD,2020-07-24,ELP03607013-R01,0.30Ω 0.00Deg,0.09,2036-01-07,590885,223376,"16, 15","12, 11",100%,,,"51.8762753945112,0.771662296345226",Colchester,E07000071
EPN-S0000000H3053,Eastern Power Networks (EPN),WEST BRAINTREE PRIMARY 33/11kV,Primary Substation,33,High,TL7362520655,140,2,120,20,0.519827025455693,51.857471175924,OFF A131 CUCKOO FARM ROUND-ABOUT,GREAT NOTLEY,BRAINTREE WEST,Essex,CM77 7WW,2003,2003-04-01,COLD,2015-06-12,ESL0963-R01,0.51Ω 0.00Deg,0.2,2025-01-11,573625,220655,NA,NA,NA,,,"51.857471175924,0.519827025455693",Braintree,E07000067
EPN-S0000000H3054,Eastern Power Networks (EPN),WITHAM PRIMARY 33/11kV,Primary Substation,33,High,TL8222515566,227,3,197,30,0.641891288839091,51.8090255565549,,,WITHAM NORTH,Essex,CM8 2SZ,1966,1966-04-01,COLD,2013-10-24,P-13-3146-01,0.24Ω 0.00Deg,,2025-01-11,582225,215566,"23, 23, 23","17, 17, 17",<100%,,,"51.8090255565549,0.641891288839091",Braintree,E07000067
EPN-S0000000H3058,Eastern Power Networks (EPN),CHELMSFORD EAST LOCAL 33/11kV,Primary Substation,33,High,TL7407604913,114,2,97,17,0.518478466646667,51.7159313868667,,,SANDON,Essex,CM2 7AQ,1959,1959-04-01,COLD,2020-09-11,ELP03607020-R01,0.41Ω 0.00Deg,0.08,2036-01-07,574076,204913,"14, 14","14, 14",100%,,,"51.7159313868667,0.518478466646667",Chelmsford,E07000070
EPN-S0000000H3061,Eastern Power Networks (EPN),FRINTON PRIMARY 33/11kV,Primary Substation,33,Very High,TM2402920439,172,2,123,49,1.25048220511355,51.8375956786903,,,FRINTON,Essex,CO13 9NH,1966,1966-04-01,COLD,2013-10-01,P-13-3065-01,0.05Ω 0.00Deg,,2025-01-11,624029,220439,"15, 15","12, 12",<100%,,,"51.8375956786903,1.25048220511355",Tendring,E07000076
EPN-S0000000H3063,Eastern Power Networks (EPN),OLD RD PRIMARY 33/11kV,Primary Substation,33,High,TM1702114920,154,2,120,34,1.14547156737431,51.7908143998246,,,CLACTON SOUTH,Essex,CO15 1HH,1961,1961-04-01,COLD,2013-04-30,P-13-2518-01,NA,0.19,2025-01-11,617021,214920,"17, 17","14, 14",100%,,,"51.7908143998246,1.14547156737431",Tendring,E07000076
EPN-S0000000H3068,Eastern Power Networks (EPN),DUNMOW PRIMARY 33/11kV,Primary Substation,33,High,TL6330821489,167,2,125,42,0.370549140110797,51.8680750681031,,,DUNMOW,Essex,CM6 1XH,1950,1950-04-01,COLD,2010-08-31,P-10-696-67,NA,0.08,2026-01-11,563308,221489,"24, 24","18, 18",100%,,,"51.8680750681031,0.370549140110797",Uttlesford,E07000077
EPN-S0000000H4007,Eastern Power Networks (EPN),ELY PRIMARY 33/11kV,Primary Substation,33,High,TL5355480156,104,2,88,16,0.255467859575925,52.3978836770285,,,ELY SOUTH,Cambridgeshire,CB7 4WJ,1984,1984-04-01,COLD,2011-07-21,P-11-1150,0.06Ω 0.00Deg,,2025-01-11,553554,280156,NA,NA,NA,,,"52.3978836770285,0.255467859575925",East Cambridgeshire,E07000009
EPN-S0000000H4016,Eastern Power Networks (EPN),ALDRETH PRIMARY 33/11kV,Primary Substation,33,High,TL44847338,111,2,108,3,0.124567063805875,52.3393816340189,,,ALDRETH,Cambridgeshire,CB6 3PJ,NA,1963-04-01,COLD,2010-04-20,P-10-697-01,0.11Ω 0.00Deg,0.22,2025-01-11,544840,273380,NA,NA,NA,,,"52.3393816340189,0.124567063805875",East Cambridgeshire,E07000009
EPN-S0000000H4028,Eastern Power Networks (EPN),EXNING PRIMARY 33/11kV,Primary Substation,33,Medium,TL6244265425,158,2,140,18,0.378869936663472,52.2630006848979,,,EXNING,Cambridgeshire,CB8 7JH,1962,1962-04-01,COLD,2017-06-13,ESL1992023-R01,1.52Ω 0.00Deg,0.15,2025-01-11,562442,265425,"15, 15","11, 11","100%,  <100%",,,"52.2630006848979,0.378869936663472",West Suffolk,E07000245
EPN-S0000000H4040,Eastern Power Networks (EPN),HARROWDEN PRIMARY 33/11kV,Primary Substation,33,High,TL0597347903,159,2,140,19,-0.453638240462025,52.1192971820726,MILE ROAD,,BEDFORD,Bedfordshire,MK42 9TB,2009,2008-04-01,COLD,2022-08-15,ELP07260029-R01,1.66Ω 0.00Deg,0.07,2038-01-07,505973,247903,"40, 40","30, 30",100%,,,"52.1192971820726,-0.453638240462025",Bedford,E06000055
EPN-S0000000H4043,Eastern Power Networks (EPN),LONGSTANTON PRIMARY 33/11kV,Primary Substation,33,High,TL3875265012,122,2,103,19,0.0318234662643994,52.2657711622001,,,LONGSTANTON,Cambridgeshire,CB24 3DX,1969,1969-04-01,COLD,2019-12-02,ELP03414-R01,0.16Ω 0.00Deg,0.13,2025-01-15,538752,265012,"24, 24","18, 18",100%,,,"52.2657711622001,0.0318234662643994",South Cambridgeshire,E07000012
EPN-S0000000H4048,Eastern Power Networks (EPN),ACROWS PRIMARY 33/11kV,Primary Substation,33,High,TL5521839169,116,1,102,14,0.261124260432069,52.0292161425497,,,SAFFRON WALDEN,Essex,CB10 2BN,1969,1969-04-01,COLD,2022-07-01,ELP07260022-R01,1.27Ω 0.00Deg,0.21,2038-01-07,555218,239169,24,20,100%,,,"52.0292161425497,0.261124260432069",Uttlesford,E07000077
EPN-S0000000H4051,Eastern Power Networks (EPN),MANTON LN PRIMARY 33/11kV,Primary Substation,33,Medium,TL0431551368,135,2,124,11,-0.476782839502988,52.1507531673233,,,BEDFORD,Bedfordshire,MK41 7PX,1960,1960-04-01,COLD,2022-08-30,ELP07260026-R01,0.34Ω 0.00Deg,0.07,2038-01-07,504315,251368,"26, 26","20, 20",100%,,,"52.1507531673233,-0.476782839502988",Bedford,E06000055
EPN-S0000000H4063,Eastern Power Networks (EPN),CROYDON PRIMARY 33/11kV,Primary Substation,33,Medium,TL31244945,69,1,68,1,-0.0842095369308766,52.1277833898086,,,CROYDON,Cambridgeshire,SG8 0DN,NA,1957-04-01,HOT,2022-03-07,ELP07260003-R01,0.32Ω 0.00Deg,0.37,2038-01-07,531240,249450,NA,NA,NA,,,"52.1277833898086,-0.0842095369308766",South Cambridgeshire,E07000012
EPN-S0000000H4069,Eastern Power Networks (EPN),LINTON PRIMARY 33/11kV,Primary Substation,33,High,TL5717349266,120,2,91,29,0.294243433350462,52.1193713042479,,,LINTON,Cambridgeshire,CB21 4LE,1967,1967-04-01,HOT,2008-11-25,P-08-502-3,NA,0.49,2025-01-11,557173,249266,"15, 15","12, 12",100%,,,"52.1193713042479,0.294243433350462",South Cambridgeshire,E07000012
EPN-S0000000H4070,Eastern Power Networks (EPN),MADINGLEY RD PRIMARY 33/11kV,Primary Substation,33,Medium,TL4272559268,153,4,146,7,0.0875781294213052,52.2131493455465,,,CAMBRIDGE WEST,Cambridgeshire,CB3 0EP,NA,2003-04-01,COLD,2020-07-09,ELP04224-R02,0.25Ω 0.00Deg,0.05,2025-01-11,542725,259268,NA,NA,NA,,,"52.2131493455465,0.0875781294213052",Cambridge,E07000008
EPN-S0000000H4077,Eastern Power Networks (EPN),PREBEND ST PRIMARY 33/11kV,Primary Substation,33,Medium,TL0454649374,209,3,180,29,-0.474020544694912,52.1327888904601,,,BEDFORD,Bedfordshire,MK40 1BN,2007,2006-04-01,COLD,2006-06-26,S0628,NA,0.04,2038-01-07,504546,249374,"24, 24, 24","18, 18, 18",100%,,,"52.1327888904601,-0.474020544694912",Bedford,E06000055
EPN-S0000000H4078,Eastern Power Networks (EPN),MILTON RD PRIMARY 33/11kV,Primary Substation,33,High,TL4672961226,144,2,120,24,0.146987205457097,52.2296894150331,,,CAMBRIDGE NORTH,Cambridgeshire,CB4 1SR,1969,1969-04-01,COLD,2014-09-05,ESL0042-054,0.87Ω 0.00Deg,0.09,2025-01-11,546729,261226,"23, 23","17, 17",<100%,NA,NA,"52.2296894150331,0.146987205457097",Cambridge,E07000008
EPN-S0000000H4085,Eastern Power Networks (EPN),GODMANCHESTER PRIMARY 33/11kV,Primary Substation,33,Medium,TL24337137,69,1,68,1,-0.177046599146817,52.3263484237649,,,GODMANCHESTER,Cambridgeshire,PE29 2AB,NA,1960-04-01,COLD,2022-04-04,ELP07260006-R01,0.42Ω 0.00Deg,0.08,2038-01-07,524330,271370,NA,NA,NA,,,"52.3263484237649,-0.177046599146817",Huntingdonshire,E07000011
EPN-S0000000H4086,Eastern Power Networks (EPN),RAF ALCONBURY PRIMARY 33/11kV,Primary Substation,33,Medium,TL2133477517,54,1,37,17,-0.2187660400265,52.3822540941566,,,ALCONBURY,Cambridgeshire,PE28 2LH,1988,1987-04-01,COLD,2022-06-22,ELP07260016-R01,3.70Ω 0.00Deg,0.07,2038-01-07,521334,277517,24,18,100%,,,"52.3822540941566,-0.2187660400265",Huntingdonshire,E07000011
EPN-S0000000H4088,Eastern Power Networks (EPN),ST ANTHONY ST PRIMARY 33/11kV,Primary Substation,33,High,TL4531557435,160,2,146,14,0.124672883245606,52.1960050000797,,,CAMBRIDGE SOUTH,Cambridgeshire,CB2 1HX,1970,1969-04-01,COLD,2015-07-15,P-12-2122-01,0.68Ω 0.00Deg,,2025-01-11,545315,257435,"23, 23","17, 17","100%,  <100%",,,"52.1960050000797,0.124672883245606",Cambridge,E07000008
EPN-S0000000H5006,Eastern Power Networks (EPN),HORSFORD PRIMARY 33/11kV,Primary Substation,33,High,TG1845914768,151,2,135,16,1.23078162110003,52.6865220989075,,,DRAYTON,Norfolk,NR10 3AL,1990,1963-04-01,HOT,2014-04-14,P-14-3062-01,NA,0.27,2029-01-11,618459,314768,"24, 18","18, 14",100%,,,"52.6865220989075,1.23078162110003",Broadland,E07000144
EPN-S0000000H5017,Eastern Power Networks (EPN),HACHESTON PRIMARY 33/11kV,Primary Substation,33,High,TM31335648,102,2,88,14,1.38056807729276,52.1580954428407,,,HACHESTON,Suffolk,IP13 0PB,1951,1951-04-01,HOT,2016-08-12,ESL1519021-R01 RA,0.68Ω 0.00Deg,0.39,2031-01-11,631330,256480,NA,NA,NA,,,"52.1580954428407,1.38056807729276",East Suffolk,E07000244
EPN-S0000000H5018,Eastern Power Networks (EPN),HENSTEAD PRIMARY 33/11kV,Primary Substation,33,High,TM49038678,111,2,99,12,1.66116078104746,52.4222551666423,,,HENSTEAD,Suffolk,NR34 7LA,NA,1966-04-01,HOT,2016-07-05,ESL1519011-R01,6.10Ω 0.00Deg,0.59,2029-01-11,649030,286780,NA,NA,NA,,,"52.4222551666423,1.66116078104746",East Suffolk,E07000244
EPN-S0000000H5019,Eastern Power Networks (EPN),LEISTON PRIMARY 33/11kV,Primary Substation,33,High,TM43056116,96,2,84,12,1.5549135063644,52.1950596083139,,,KNODISHALL,Suffolk,IP17 1TT,NA,1936-04-01,HOT,2010-08-31,P-10-696-72,NA,0.38,2031-01-11,643050,261160,NA,NA,NA,,,"52.1950596083139,1.5549135063644",East Suffolk,E07000244
EPN-S0000000H5021,Eastern Power Networks (EPN),MAGDALEN WAY PRIMARY 33/11kV,Primary Substation,33,High,TG51820387,85,2,83,2,1.71501848400845,52.5742947660599,,,GORLESTON,Norfolk,NR31 7AA,NA,1963-04-01,COLD,2014-04-17,ESL0042-11462,0.80Ω 0.00Deg,,2029-01-11,651820,303870,NA,NA,NA,,,"52.5742947660599,1.71501848400845",Great Yarmouth,E07000145
EPN-S0000000H5022,Eastern Power Networks (EPN),MULBARTON PRIMARY 33/11kV,Primary Substation,33,Very High,TG20710122,88,2,88,0,1.25498546739366,52.5640147325315,,,MULBARTON,Norfolk,NR14 8DS,NA,1964-04-01,HOT,2015-11-10,ESL0951045-R01 RB,1.82Ω 0.00Deg,0.89,2029-01-11,620710,301220,NA,NA,NA,,,"52.5640147325315,1.25498546739366",South Norfolk,E07000149
EPN-S0000000H5036,Eastern Power Networks (EPN),MARTHAM PRIMARY 33/11kV,Primary Substation,33,High,TG4574817882,139,3,128,11,1.63602502169372,52.7027804361989,,,MARTHAM,Norfolk,NR29 4QS,1954,1953-04-01,COLD,2013-04-12,P-13-2487-01,NA,0.18,2029-01-11,645748,317882,"13, 6, 6","11, 5, 5","100%,  <100%",,,"52.7027804361989,1.63602502169372",Great Yarmouth,E07000145
EPN-S0000000H5039,Eastern Power Networks (EPN),WHAPLOAD RD PRIMARY 33/11kV,Primary Substation,33,High,TM5522193752,98,2,86,12,1.75733078863318,52.4819475122641,,,LOWESTOFT EAST,Suffolk,NR32 1TY,1968,1968-04-01,COLD,2017-12-05,ESL1992017-R01,14.40Ω 0.00Deg,0.2,2029-01-11,655221,293752,"23, 23","17, 17",<100%,,,"52.4819475122641,1.75733078863318",East Suffolk,E07000244
EPN-S0000000H5045,Eastern Power Networks (EPN),HEMBLINGTON PRIMARY 33/11kV,Primary Substation,33,Very High,TG33511192,164,2,147,17,1.45102710043497,52.6546936827359,,,HEMBLINGTON,Norfolk,NR13 4QB,NA,1966-04-01,HOT,2016-07-01,ESL1519006-R01,2.72Ω 0.00Deg,0.47,2029-01-11,633510,311920,NA,NA,NA,,,"52.6546936827359,1.45102710043497",Broadland,E07000144
EPN-S0000000H5049,Eastern Power Networks (EPN),BECCLES PRIMARY 33/11kV,Primary Substation,33,High,TM4245690217,129,2,107,22,1.56717287386022,52.4560453882952,,,BECCLES,Suffolk,NR34 9QT,1966,1966-04-01,COLD,2017-12-06,ESL1992008,0.56Ω 0.00Deg,0.22,2028-01-11,642456,290217,"15, 15","12, 12",6.5MVA,,,"52.4560453882952,1.56717287386022",East Suffolk,E07000244
EPN-S0000000H5050,Eastern Power Networks (EPN),EARLHAM WEST PRIMARY 33/11kV,Primary Substation,33,Very High,TG19770853,113,2,113,0,1.24599087483737,52.6300048016527,,,NORWICH NR5,Norfolk,NR5 8HN,NA,1963-04-01,COLD,2014-12-22,P-13-3190-01,1.85Ω 0.00Deg,0.16,2030-01-11,619770,308530,NA,NA,NA,,,"52.6300048016527,1.24599087483737",Norwich,E07000148
EPN-S0000000H5059,Eastern Power Networks (EPN),SCOTTOW PRIMARY 33/11kV,Primary Substation,33,High,TG26202375,92,2,89,3,1.35128488915742,52.7639546306434,,,SCOTTOW,Norfolk,NR10 5DF,NA,1975-04-01,HOT,2010-07-15,P-10-696-43,NA,0.42,2029-01-11,626200,323750,NA,NA,NA,,,"52.7639546306434,1.35128488915742",North Norfolk,E07000147
EPN-S0000000H5064,Eastern Power Networks (EPN),CROMER PRIMARY 33/11kV,Primary Substation,33,High,TG22294053,132,2,130,2,1.3048608045795,52.916168334031,,,CROMER,Norfolk,NR27 9LW,NA,1963-04-01,HOT,2016-06-21,ESL1519001-R01,5.13Ω 0.00Deg,0.45,2028-01-11,622290,340530,NA,NA,NA,,,"52.916168334031,1.3048608045795",North Norfolk,E07000147
EPN-S0000000H5074,Eastern Power Networks (EPN),BEIGHTON PRIMARY 33/11kV,Primary Substation,33,High,TG37970851,87,2,85,2,1.51437893517319,52.6221596923307,,,BEIGHTON,Norfolk,NR13 3JX,NA,1966-04-01,HOT,2014-08-29,ESL0343001-R02 RA,1.59Ω 0.00Deg,1.19,2029-01-11,637970,308510,NA,NA,NA,,,"52.6221596923307,1.51437893517319",Broadland,E07000144
EPN-S0000000H5079,Eastern Power Networks (EPN),HAPTON PRIMARY 33/11kV,Primary Substation,33,Very High,TM1797796314,153,2,144,9,1.21151309264698,52.5210806354643,,,THARSTON,Norfolk,NR15 1SN,NA,1960-04-01,HOT,2008-11-26,P-08-502-8,NA,0.32,2030-01-11,617977,296314,NA,NA,NA,,,"52.5210806354643,1.21151309264698",South Norfolk,E07000149
EPN-S0000000H5080,Eastern Power Networks (EPN),HARDINGHAM PRIMARY 33/11kV,Primary Substation,33,High,TG0478304680,71,1,48,23,1.02250058724456,52.6012987580131,,,HARDINGHAM,Norfolk,NR9 4AE,1959,1959-04-01,HOT,2014-08-28,ESL0343008-R02 RA,1.76Ω 0.00Deg,1.1,2028-01-11,604783,304680,5,4,Not Available,,,"52.6012987580131,1.02250058724456",Breckland,E07000143
EPN-S0000000H5083,Eastern Power Networks (EPN),ORMESBY PRIMARY 33/11kV,Primary Substation,33,High,TG4946715632,125,2,114,11,1.68924479672554,52.6808965137977,,,ORMESBY ST MARGARET,Norfolk,NR29 3LL,1967,1967-04-01,HOT,2010-07-15,P-10-696-46,NA,0.36,2029-01-11,649467,315632,"15, 15","12, 12",<100%,,,"52.6808965137977,1.68924479672554",Great Yarmouth,E07000145
EPN-S0000000H6008,Eastern Power Networks (EPN),LEVERINGTON PRIMARY 33/11kV,Primary Substation,33,Very High,TF44991088,116,2,113,3,0.143095856407904,52.6762296925641,LITTLE DOWGATE,,LEVERINGTON,Cambridgeshire,PE13 5DL,NA,1991-04-01,HOT,2013-08-09,P-13-2788-01,0.33Ω 0.00Deg,,2028-01-11,544990,310880,NA,NA,NA,,,"52.6762296925641,0.143095856407904",Fenland,E07000010
EPN-S0000000H6009,Eastern Power Networks (EPN),SNETTISHAM PRIMARY 33/11kV,Primary Substation,33,High,TF70253379,103,2,101,2,0.528248630686506,52.874640404516,,,SNETTISHAM,Norfolk,PE31 6RZ,NA,1985-04-01,HOT,2017-01-27,ESL0343013-R02,0.45Ω 0.00Deg,1.05,2030-01-11,570250,333790,NA,NA,NA,NA,NA,"52.874640404516,0.528248630686506",King's Lynn and West Norfolk,E07000146
EPN-S0000000H6011,Eastern Power Networks (EPN),WATTON PRIMARY 33/11kV,Primary Substation,33,Medium,TF90880128,126,2,124,2,0.815522640736117,52.5758281720386,,,WATTON,Norfolk,IP25 6EA,NA,1988-04-01,HOT,2011-09-29,P-11-1241-01,NA,0.26,2030-01-11,590880,301280,NA,NA,NA,,,"52.5758281720386,0.815522640736117",Breckland,E07000143
EPN-S0000000H6016,Eastern Power Networks (EPN),FAKENHAM PRIMARY 33/11kV,Primary Substation,33,Medium,TF9182029629,139,2,122,17,0.845897148493393,52.8300316889664,,,FAKENHAM,Norfolk,NR21 9BW,1973,1973-04-01,COLD,2013-11-06,P-13-3054-01,NA,0.13,2030-01-11,591820,329629,"24, 24","18, 18",100%,,,"52.8300316889664,0.845897148493393",North Norfolk,E07000147
EPN-S0000000H6017,Eastern Power Networks (EPN),FARCET PRIMARY 33/11kV,Primary Substation,33,Very High,TL19879467,145,2,128,17,-0.234107584000454,52.5367083923244,,,FARCET,Cambridgeshire,PE7 3BJ,NA,1962-04-01,HOT,2021-06-14,ELP05795-R01,0.36Ω 0.00Deg,0.14,2028-01-11,519870,294670,NA,NA,NA,,,"52.5367083923244,-0.234107584000454",Huntingdonshire,E07000011
EPN-S0000000H6023,Eastern Power Networks (EPN),COXFORD PRIMARY 33/11kV,Primary Substation,33,High,TF84772933,65,2,65,0,0.741212258954811,52.8298080663625,,,EAST RUDHAM,Norfolk,PE31 8RS,NA,1944-04-01,COLD,2013-11-12,P-13-3052-01,NA,0.35,2030-01-11,584770,329330,5,5,Not Available,,,"52.8298080663625,0.741212258954811",King's Lynn and West Norfolk,E07000146
EPN-S0000000H6029,Eastern Power Networks (EPN),MARCH PRIMARY 33/11kV,Primary Substation,33,Very High,TL4153096625,130,2,113,17,0.0858604926141099,52.5490797871529,,,MARCH,Cambridgeshire,PE15 9LT,1973,1973-04-01,COLD,2011-08-16,P-10-696-124,0.11Ω 0.00Deg,,2028-01-11,541530,296625,"24, 24","18, 18",100%,,,"52.5490797871529,0.0858604926141099",Fenland,E07000010
EPN-S0000000H6030,Eastern Power Networks (EPN),WATLINGTON PRIMARY 33/11kV,Primary Substation,33,Medium,TF6324110408,73,1,63,10,0.412564926230026,52.6668052159131,THIEVES BRIDGE ROAD,WATLINGTON,KINGS LYNN,Norfolk,PE33 0HL,1996,1969-04-01,COLD,2006-06-30,BPI 30-06-2006,NA,0.21,2028-01-11,563241,310408,15,12,100%,,,"52.6668052159131,0.412564926230026",King's Lynn and West Norfolk,E07000146
EPN-S0000000H6042,Eastern Power Networks (EPN),SWAFFHAM GRID 33/11kV,Primary Substation,33,High,TF82930843,139,3,117,22,0.702295290945744,52.6427632788433,,,SWAFFHAM,Norfolk,PE37 8DB,NA,1961-04-01,HOT,2016-06-08,ESL1669-R01,NA,0.22,2030-01-15,582930,308430,NA,NA,NA,,,"52.6427632788433,0.702295290945744",Breckland,E07000143
