desc,number,voltage,source,srcBreak,srcName,mounting,siteNo,siteName,_predicate,geometry,latlon,lon,lat,size
WPD Ground Mounted Substation,,33KV,,,,Ground Mounted,840022,Weir Hill 33/11kv,INTERSECTS,POINT (351504.94800000003 312086.447),"(-2.7191568883822184, 52.704259348918086)",-2.7191568883822184,52.704259348918086,10
WPD Ground Mounted Substation,,33KV,,,,Ground Mounted,840022,Weir Hill 33/11kv,INTERSECTS,POINT (351504.472 312082.431),"(-2.7191562970899064, 52.704223393294484)",-2.7191562970899064,52.704223393294484,10
WPD Ground Mounted Substation,,33KV,,,,Ground Mounted,840020,ROUSHILL 33KV/11KV S/STN,INTERSECTS,POINT (349180.965 312688.817),"(-2.7536411635628, 52.70945696216405)",-2.7536411635628,52.70945696216405,10
WPD Ground Mounted Substation,,33KV,,,,Ground Mounted,840020,ROUSHILL 33KV/11KV S/STN,INTERSECTS,POINT (349184.984 312693.679),"(-2.753582738443792, 52.70950228270036)",-2.753582738443792,52.70950228270036,10
WPD Ground Mounted Substation,,33KV,,,,Ground Mounted,840025,SPRING GARDENS 33KV/11KV S/STN,INTERSECTS,POINT (350174.234 313871.718),"(-2.739109757973741, 52.72018339684098)",-2.739109757973741,52.72018339684098,10
WPD Ground Mounted Substation,,33KV,,,,Ground Mounted,840025,SPRING GARDENS 33KV/11KV S/STN,INTERSECTS,POINT (350169.705 313851.93200000003),"(-2.7391807355587003, 52.72000315847666)",-2.7391807355587003,52.72000315847666,10
WPD Ground Mounted Substation,,33KV,,,,Ground Mounted,840010,DONNINGTON 33KV/11KV S/STN,INTERSECTS,POINT (370809.067 314412.294),"(-2.4336706015419787, 52.726557828555066)",-2.4336706015419787,52.726557828555066,10
WPD Ground Mounted Substation,,33KV,,,,Ground Mounted,840011,SNEDSHILL 33/11KV S/STN 33KV/11KV S/STN,INTERSECTS,POINT (370194.788 310201.702),"(-2.4423934110281436, 52.68867004404477)",-2.4423934110281436,52.68867004404477,10
WPD Ground Mounted Substation,,33KV,,,,Ground Mounted,840011,SNEDSHILL 33/11KV S/STN 33KV/11KV S/STN,INTERSECTS,POINT (370209.34 310222.492),"(-2.44217341287634, 52.68885964919378)",-2.44217341287634,52.68885964919378,10
WPD Ground Mounted Substation,,33KV,,,,Ground Mounted,840011,SNEDSHILL 33/11KV S/STN 33KV/11KV S/STN,INTERSECTS,POINT (370186.42600000004 310191.97000000003),"(-2.442510851712502, 52.68857970837537)",-2.442510851712502,52.68857970837537,10
WPD Ground Mounted Substation,,33KV,,,,Ground Mounted,680024,KETLEY 33KV/11KV S/STN,INTERSECTS,POINT (367420.14 310833.574),"(-2.4834938640480027, 52.694190956884796)",-2.4834938640480027,52.694190956884796,10
WPD Ground Mounted Substation,,33KV,,,,Ground Mounted,680024,KETLEY 33KV/11KV S/STN,INTERSECTS,POINT (367418.673 310823.69),"(-2.4835224613899824, 52.69410094303975)",-2.4835224613899824,52.69410094303975,10
WPD Ground Mounted Substation,,33KV,,,,Ground Mounted,850006,HOOKGATE 33/11KV 33KV/11KV S/STN,INTERSECTS,POINT (374576.13300000003 335113.407),"(-2.3795126152960346, 52.912835097718705)",-2.3795126152960346,52.912835097718705,10
WPD Ground Mounted Substation,,33KV,,,,Ground Mounted,670122,ALBRIGHTON 33KV/11KV S/STN,INTERSECTS,POINT (383196.196 304392.139),"(-2.2497434693243914, 52.63701167202016)",-2.2497434693243914,52.63701167202016,10
WPD Ground Mounted Substation,,33KV,,,,Ground Mounted,680026,MEAFORD C 132/33/11KV S/STN,INTERSECTS,POINT (388825.832 337149.385),"(-2.167695503338177, 52.93162553550614)",-2.167695503338177,52.93162553550614,10
WPD Ground Mounted Substation,,33KV,,,,Ground Mounted,850010,ECCLESHALL PRIMARY 33/11KV S/STN,INTERSECTS,POINT (382918.467 328367.042),"(-2.2551081732299587, 52.85252534318777)",-2.2551081732299587,52.85252534318777,10
WPD Ground Mounted Substation,,33KV,,,,Ground Mounted,850010,ECCLESHALL PRIMARY 33/11KV S/STN,INTERSECTS,POINT (382919.68 328367.699),"(-2.2550933235407156, 52.85252537512287)",-2.2550933235407156,52.85252537512287,10
WPD Ground Mounted Substation,,33KV,,,,Ground Mounted,680026,MEAFORD C 132/33/11KV S/STN,INTERSECTS,POINT (388824.332 337149.385),"(-2.167710380168705, 52.931625514479045)",-2.167710380168705,52.931625514479045,10
WPD Ground Mounted Substation,,33KV,,,,Ground Mounted,680026,MEAFORD C 132/33/11KV S/STN,INTERSECTS,POINT (388822.532 337149.385),"(-2.1677401338297067, 52.93162547241929)",-2.1677401338297067,52.93162547241929,10
WPD Ground Mounted Substation,,33KV,,,,Ground Mounted,856887,LOWER NEWTON SOLAR FARM 33KV,INTERSECTS,POINT (398834.512 338611.233),"(-2.0187984265391683, 52.94488499464913)",-2.0187984265391683,52.94488499464913,10
WPD Ground Mounted Substation,,33KV,,,,Ground Mounted,850014,SCOT HAY 33/11KV S/STN,INTERSECTS,POINT (380540.522 347153.786),"(-2.291554429157784, 53.02131421256094)",-2.291554429157784,53.02131421256094,10
WPD Ground Mounted Substation,,33KV,,,,Ground Mounted,850015,KNYPERSLEY 33/11KV S/STN,INTERSECTS,POINT (388140.831 355726.805),"(-2.1785751898318417, 53.09860116442099)",-2.1785751898318417,53.09860116442099,10
WPD Ground Mounted Substation,,33KV,,,,Ground Mounted,850015,KNYPERSLEY 33/11KV S/STN,INTERSECTS,POINT (388130.663 355738.658),"(-2.178724981109099, 53.09870880760534)",-2.178724981109099,53.09870880760534,10
WPD Ground Mounted Substation,,33KV,,,,Ground Mounted,680059,STAGEFIELDS 132/33/11KV 132KV/33KV S/STN,INTERSECTS,POINT (388726.037 346271.915),"(-2.169489295352471, 53.01362262282243)",-2.169489295352471,53.01362262282243,10
WPD Ground Mounted Substation,,33KV,,,,Ground Mounted,930068,APOLLO 33KV/11KV S/STN,INTERSECTS,POINT (419718.101 304515.635),"(-1.7100595035938402, 52.63802707284226)",-1.7100595035938402,52.63802707284226,10
WPD Ground Mounted Substation,,33KV,,,,Ground Mounted,930068,APOLLO 33KV/11KV S/STN,INTERSECTS,POINT (419725.075 304515.409),"(-1.709956065222774, 52.6380268199267)",-1.709956065222774,52.6380268199267,10
WPD Ground Mounted Substation,,33KV,,,,Ground Mounted,870028,MARCHINGTON 33KV/11KV S/STN,INTERSECTS,POINT (413350.552 331272.449),"(-1.803079059974628, 52.878751257500234)",-1.803079059974628,52.878751257500234,10
WPD Ground Mounted Substation,,33KV,,,,Ground Mounted,870028,MARCHINGTON 33KV/11KV S/STN,INTERSECTS,POINT (413354.885 331283.364),"(-1.8030191776968338, 52.87885004133277)",-1.8030191776968338,52.87885004133277,10
WPD Ground Mounted Substation,,33KV,,,,Ground Mounted,870026,ROCESTER 33KV/11KV S/STN,INTERSECTS,POINT (410137.93 339181.799),"(-1.8505761279025381, 52.94991679980228)",-1.8505761279025381,52.94991679980228,10
WPD Ground Mounted Substation,,33KV,,,,Ground Mounted,870026,ROCESTER 33KV/11KV S/STN,INTERSECTS,POINT (410119.396 339187.006),"(-1.8508438388399853, 52.9499710709522)",-1.8508438388399853,52.9499710709522,10
WPD Ground Mounted Substation,,33KV,,,,Ground Mounted,870027,CHURCH ST 33KV/11KV S/STN,INTERSECTS,POINT (409448.265 333545.453),"(-1.8609926593321369, 52.89926579765998)",-1.8609926593321369,52.89926579765998,10
WPD Ground Mounted Substation,,33KV,,,,Ground Mounted,870027,CHURCH ST 33KV/11KV S/STN,INTERSECTS,POINT (409455.27400000003 333544.21),"(-1.8608886277014, 52.899256686792604)",-1.8608886277014,52.899256686792604,10
WPD Ground Mounted Substation,,33KV,,,,Ground Mounted,863412,MONEYSTONE QUARRY PV FARM,INTERSECTS,POINT (404559.803 345727.191),"(-1.933504456510321, 53.00883522512755)",-1.933504456510321,53.00883522512755,10
WPD Ground Mounted Substation,,33KV,,,,Ground Mounted,850017,FROGHALL 33/11KV S/STN 33KV/11KV S/STN,INTERSECTS,POINT (402530.985 347233.033),"(-1.96373223923012, 53.02238586396978)",-1.96373223923012,53.02238586396978,10
WPD Ground Mounted Substation,,33KV,,,,Ground Mounted,890064,FLAGG 33/11KV S/STN 33KV/11KV S/STN,INTERSECTS,POINT (414659.103 368690.303),"(-1.7819401308945015, 53.21506893198772)",-1.7819401308945015,53.21506893198772,10
WPD Ground Mounted Substation,,33KV,,,,Ground Mounted,890063,HINDLOW 33KV/11KV S/STN,INTERSECTS,POINT (409810.95 368276.117),"(-1.8545657531775877, 53.21145813890917)",-1.8545657531775877,53.21145813890917,10
WPD Ground Mounted Substation,,33KV,,,,Ground Mounted,875089,DRAKELOW RENEWABLE ENERGY CENTRE,INTERSECTS,POINT (423289.18 319716.243),"(-1.6562199959151847, 52.77453496690652)",-1.6562199959151847,52.77453496690652,10
WPD Ground Mounted Substation,,33KV,,,,Ground Mounted,870010,GRESLEY 33KV/11KV S/STN,INTERSECTS,POINT (427802.452 317965.074),"(-1.5894721011582253, 52.75858218718703)",-1.5894721011582253,52.75858218718703,10
WPD Ground Mounted Substation,,33KV,,,,Ground Mounted,870010,GRESLEY 33KV/11KV S/STN,INTERSECTS,POINT (427817.16000000003 317954.505),"(-1.589250768502473, 52.75848253601709)",-1.589250768502473,52.75848253601709,10
WPD Ground Mounted Substation,,33KV,,,,Ground Mounted,870010,GRESLEY 33KV/11KV S/STN,INTERSECTS,POINT (427829.223 317945.302),"(-1.5890737200155993, 52.758401016923806)",-1.5890737200155993,52.758401016923806,10
WPD Ground Mounted Substation,,33KV,,,,Ground Mounted,930072,POLESWORTH 33KV/11KV S/STN,INTERSECTS,POINT (426298.066 302088.416),"(-1.613020554628076, 52.615931898179376)",-1.613020554628076,52.615931898179376,10
WPD Ground Mounted Substation,,33KV,,,,Ground Mounted,939140,ATHERSTONE SOLAR FARM 33KV,INTERSECTS,POINT (429691.317 301506.344),"(-1.5629605608064991, 52.610525833471705)",-1.5629605608064991,52.610525833471705,10
WPD Ground Mounted Substation,,33KV,,,,Ground Mounted,939146,BABELAKE ST PACKINGTON 33KV,INTERSECTS,POINT (435597.044 312657.641),"(-1.4745450362135644, 52.7104118975158)",-1.4745450362135644,52.7104118975158,10
WPD Ground Mounted Substation,,33KV,,,,Ground Mounted,870013,BARTON UNDER NEEDWOOD 33KV/11KV S/STN,INTERSECTS,POINT (420028.602 317891.862),"(-1.7046689626600033, 52.758259410812855)",-1.7046689626600033,52.758259410812855,10
WPD Ground Mounted Substation,,33KV,,,,Ground Mounted,870013,BARTON UNDER NEEDWOOD 33KV/11KV S/STN,INTERSECTS,POINT (420043.433 317877.496),"(-1.704447550383016, 52.7581330059978)",-1.704447550383016,52.7581330059978,10
WPD Ground Mounted Substation,,33KV,,,,Ground Mounted,939150,PRESTOP FM BURTON RD ASHBY 33KV,INTERSECTS,POINT (433918.62700000004 317339.97000000003),"(-1.4989138004655194, 52.75260693703445)",-1.4989138004655194,52.75260693703445,10
WPD Ground Mounted Substation,,33KV,,,,Ground Mounted,930101,ASHBY 33KV/11KV S/STN,INTERSECTS,POINT (435125.096 317996.216),"(-1.4809616478839478, 52.75843597617639)",-1.4809616478839478,52.75843597617639,10
WPD Ground Mounted Substation,,33KV,,,,Ground Mounted,930101,ASHBY 33KV/11KV S/STN,INTERSECTS,POINT (435123.032 317986.492),"(-1.4809923502957913, 52.75834621412766)",-1.4809923502957913,52.75834621412766,10
WPD Ground Mounted Substation,,33KV,,,,Ground Mounted,870038,MACKWORTH 33KV/11KV S/STN,INTERSECTS,POINT (432359.02 336016.221),"(-1.5201651373912677, 52.92059160779797)",-1.5201651373912677,52.92059160779797,10
WPD Ground Mounted Substation,,33KV,,,,Ground Mounted,870038,MACKWORTH 33KV/11KV S/STN,INTERSECTS,POINT (432348.646 336014.408),"(-1.5203289344592923, 52.920574290036036)",-1.5203289344592923,52.920574290036036,10
WPD Ground Mounted Substation,,33KV,,,,Ground Mounted,875136,INFINITY PARK 33KV/11KV S/STN,INTERSECTS,POINT (436187.891 331430.967),"(-1.4637421679179554, 52.87912498757263)",-1.4637421679179554,52.87912498757263,10
WPD Ground Mounted Substation,,33KV,,,,Ground Mounted,875136,INFINITY PARK 33KV/11KV S/STN,INTERSECTS,POINT (436178.038 331441.126),"(-1.4638746734833972, 52.87922446947105)",-1.4638746734833972,52.87922446947105,10
WPD Ground Mounted Substation,,33KV,,,,Ground Mounted,870031,HATTON 33/11KV S/STN,INTERSECTS,POINT (421529.683 329633.164),"(-1.6816583651963901, 52.863754531732404)",-1.6816583651963901,52.863754531732404,10
WPD Ground Mounted Substation,,33KV,,,,Ground Mounted,870031,HATTON 33/11KV S/STN,INTERSECTS,POINT (421531.88 329639.869),"(-1.6816282638557885, 52.86380838756011)",-1.6816282638557885,52.86380838756011,10
WPD Ground Mounted Substation,,33KV,,,,Ground Mounted,870032,STATION STREET 33/11KV S/STN,INTERSECTS,POINT (424907.86 323024.328),"(-1.6319857517272722, 52.80419971085611)",-1.6319857517272722,52.80419971085611,10
WPD Ground Mounted Substation,,33KV,,,,Ground Mounted,870032,STATION STREET 33/11KV S/STN,INTERSECTS,POINT (424884.048 323013.10000000003),"(-1.6323277456307053, 52.804101885404286)",-1.6323277456307053,52.804101885404286,10
WPD Ground Mounted Substation,,33KV,,,,Ground Mounted,870041,SINFIN LANE 33KV/11KV S/STN,INTERSECTS,POINT (435459.065 332361.021),"(-1.4744578751775659, 52.887542034517686)",-1.4744578751775659,52.887542034517686,10
WPD Ground Mounted Substation,,33KV,,,,Ground Mounted,870041,SINFIN LANE 33KV/11KV S/STN,INTERSECTS,POINT (435467.199 332362.529),"(-1.474338877111207, 52.887550497663085)",-1.474338877111207,52.887550497663085,10
WPD Ground Mounted Substation,,33KV,,,,Ground Mounted,870039,DARLEY ABBEY 33KV/11KV S/STN,INTERSECTS,POINT (434649.906 338624.363),"(-1.4858294440979793, 52.94389233281226)",-1.4858294440979793,52.94389233281226,10
WPD Ground Mounted Substation,,33KV,,,,Ground Mounted,870039,DARLEY ABBEY 33KV/11KV S/STN,INTERSECTS,POINT (434650.536 338638.42100000003),"(-1.4858130723157283, 52.944018112895414)",-1.4858130723157283,52.944018112895414,10
WPD Ground Mounted Substation,,33KV,,,,Ground Mounted,870040,NORMANTON 33KV/11KV S/STN,INTERSECTS,POINT (434246.092 333623.38800000004),"(-1.4923520640172467, 52.8989644692356)",-1.4923520640172467,52.8989644692356,10
WPD Ground Mounted Substation,,33KV,,,,Ground Mounted,870040,NORMANTON 33KV/11KV S/STN,INTERSECTS,POINT (434240.079 333626.624),"(-1.492440939832367, 52.898991817037135)",-1.492440939832367,52.898991817037135,10
WPD Ground Mounted Substation,,33KV,,,,Ground Mounted,870035,TRENT ALLOYS 33KV/11KV S/STN,INTERSECTS,POINT (429429.617 328172.71),"(-1.5644488248548751, 52.850249162531476)",-1.5644488248548751,52.850249162531476,10
WPD Ground Mounted Substation,,33KV,,,,Ground Mounted,870029,WELLINGTON ST 33/11KV S/STN,INTERSECTS,POINT (423502.918 322818.924),"(-1.6528409805501192, 52.80241066018562)",-1.6528409805501192,52.80241066018562,10
WPD Ground Mounted Substation,,33KV,,,,Ground Mounted,870029,WELLINGTON ST 33/11KV S/STN,INTERSECTS,POINT (423512.987 322811.119),"(-1.6526931566222973, 52.80234730145902)",-1.6526931566222973,52.80234730145902,10
WPD Ground Mounted Substation,,33KV,,,,Ground Mounted,870043,ALLENTON 33KV/11KV S/STN,INTERSECTS,POINT (436882.107 333101.97000000003),"(-1.4532268288682533, 52.89409843576664)",-1.4532268288682533,52.89409843576664,10
WPD Ground Mounted Substation,,33KV,,,,Ground Mounted,870043,ALLENTON 33KV/11KV S/STN,INTERSECTS,POINT (436886.815 333102.424),"(-1.4531672623270586, 52.894107151143565)",-1.4531672623270586,52.894107151143565,10
WPD Ground Mounted Substation,,33KV,,,,Ground Mounted,870043,ALLENTON 33KV/11KV S/STN,INTERSECTS,POINT (436876.548 333104.286),"(-1.453315669905266, 52.89412581276882)",-1.453315669905266,52.89412581276882,10
WPD Ground Mounted Substation,,33KV,,,,Ground Mounted,870042,MORLEY 33/11KV S/STN,INTERSECTS,POINT (439486.31200000003 341393.618),"(-1.413516651361945, 52.9684491874419)",-1.413516651361945,52.9684491874419,10
WPD Ground Mounted Substation,,33KV,,,,Ground Mounted,870042,MORLEY 33/11KV S/STN,INTERSECTS,POINT (439487.36600000004 341409.32),"(-1.4134998167532011, 52.968592933880515)",-1.4134998167532011,52.968592933880515,10
WPD Ground Mounted Substation,,33KV,,,,Ground Mounted,890076,BELPER 33KV/11KV S/STN,INTERSECTS,POINT (435217.52 346577.762),"(-1.4765144426654107, 53.01534357719844)",-1.4765144426654107,53.01534357719844,10
WPD Ground Mounted Substation,,33KV,,,,Ground Mounted,890076,BELPER 33KV/11KV S/STN,INTERSECTS,POINT (435204.548 346573.061),"(-1.476708643053819, 53.01530847439502)",-1.476708643053819,53.01530847439502,10
WPD Ground Mounted Substation,,33KV,,,,Ground Mounted,890082,DENBY 33KV/11KV S/STN,INTERSECTS,POINT (438338.838 346634.271),"(-1.4299893285681613, 53.01564219004029)",-1.4299893285681613,53.01564219004029,10
WPD Ground Mounted Substation,,33KV,,,,Ground Mounted,890082,DENBY 33KV/11KV S/STN,INTERSECTS,POINT (438345.748 346624.297),"(-1.429886177507614, 53.01555180322935)",-1.429886177507614,53.01555180322935,10
WPD Ground Mounted Substation,,33KV,,,,Ground Mounted,890088,RIPLEY 33KV/11KV S/STN,INTERSECTS,POINT (439862.927 351307.889),"(-1.4066980828189863, 53.05753506044991)",-1.4066980828189863,53.05753506044991,10
WPD Ground Mounted Substation,,33KV,,,,Ground Mounted,890088,RIPLEY 33KV/11KV S/STN,INTERSECTS,POINT (439861.242 351297.428),"(-1.4067142364611518, 53.057445248860304)",-1.4067142364611518,53.057445248860304,10
WPD Ground Mounted Substation,,33KV,,,,Ground Mounted,870033,RAVENSDALE PARK 33KV/11KV S/STN,INTERSECTS,POINT (426943.96 344861.973),"(-1.5999831836331304, 53.00039716450804)",-1.5999831836331304,53.00039716450804,10
WPD Ground Mounted Substation,,33KV,,,,Ground Mounted,870033,RAVENSDALE PARK 33KV/11KV S/STN,INTERSECTS,POINT (426967.284 344879.615),"(-1.5996240839952907, 53.00055776285349)",-1.5996240839952907,53.00055776285349,10
WPD Ground Mounted Substation,,33KV,,,,Ground Mounted,890077,AMBERGATE 33KV/11KV S/STN,INTERSECTS,POINT (434755.362 351866.619),"(-1.4828322822251874, 53.06291511213951)",-1.4828322822251874,53.06291511213951,10
WPD Ground Mounted Substation,,33KV,,,,Ground Mounted,890077,AMBERGATE 33KV/11KV S/STN,INTERSECTS,POINT (434764.324 351860.043),"(-1.4826986346940596, 53.06286059647962)",-1.4826986346940596,53.06286059647962,10
WPD Ground Mounted Substation,,33KV,,,,Ground Mounted,890067,LONGCLIFFE 33KV/11KV S/STN,INTERSECTS,POINT (422909.026 355350.093),"(-1.6593487680181405, 53.09486895069131)",-1.6593487680181405,53.09486895069131,10
WPD Ground Mounted Substation,,33KV,,,,Ground Mounted,890067,LONGCLIFFE 33KV/11KV S/STN,INTERSECTS,POINT (422916.954 355361.814),"(-1.6592434573175747, 53.09496752920287)",-1.6592434573175747,53.09496752920287,10
WPD Ground Mounted Substation,,33KV,,,,Ground Mounted,890068,MILLCLOSE 33/11KV S/STN 33KV/11KV S/STN,INTERSECTS,POINT (425761.994 362363.795),"(-1.6161995774911195, 53.15777779701248)",-1.6161995774911195,53.15777779701248,10
WPD Ground Mounted Substation,,33KV,,,,Ground Mounted,890068,MILLCLOSE 33/11KV S/STN 33KV/11KV S/STN,INTERSECTS,POINT (425773.112 362362.627),"(-1.616020202147118, 53.157768230303866)",-1.616020202147118,53.157768230303866,10
WPD Ground Mounted Substation,,33KV,,,,Ground Mounted,890016,GOITSIDE 33KV/6.6KV S/STN,INTERSECTS,POINT (437210.22500000003 370848.139),"(-1.4440018745240797, 53.23337038503457)",-1.4440018745240797,53.23337038503457,10
WPD Ground Mounted Substation,,33KV,,,,Ground Mounted,890016,GOITSIDE 33KV/6.6KV S/STN,INTERSECTS,POINT (437212.025 370848.135),"(-1.443971913354946, 53.23337024534753)",-1.443971913354946,53.23337024534753,10
WPD Ground Mounted Substation,,33KV,,,,Ground Mounted,890095,BIWATER 33/11KV S/STN,INTERSECTS,POINT (439824.489 364246.131),"(-1.4056640215101117, 53.17384016439897)",-1.4056640215101117,53.17384016439897,10
WPD Ground Mounted Substation,,33KV,,,,Ground Mounted,890081,ROBERT HYDE 33KV/11KV S/STN,INTERSECTS,POINT (438859.648 370576.75),"(-1.419332042772598, 53.230807825479076)",-1.419332042772598,53.230807825479076,10
WPD Ground Mounted Substation,,33KV,,,,Ground Mounted,890081,ROBERT HYDE 33KV/11KV S/STN,INTERSECTS,POINT (438855.273 370579.321),"(-1.419391596640964, 53.23083508227776)",-1.419391596640964,53.23083508227776,10
WPD Ground Mounted Substation,,33KV,,,,Ground Mounted,890079,QUEENS PARK 33KV/11KV S/STN,INTERSECTS,POINT (438062.563 370845.958),"(-1.4312387964703015, 53.23328323158605)",-1.4312387964703015,53.23328323158605,10
WPD Ground Mounted Substation,,33KV,,,,Ground Mounted,890079,QUEENS PARK 33KV/11KV S/STN,INTERSECTS,POINT (438055.31200000003 370853.434),"(-1.4313427076946637, 53.23335563859395)",-1.4313427076946637,53.23335563859395,10
WPD Ground Mounted Substation,,33KV,,,,Ground Mounted,890065,BAKEWELL 33KV/11KV S/STN,INTERSECTS,POINT (420842.912 368856.213),"(-1.6893407137651957, 53.21635589258365)",-1.6893407137651957,53.21635589258365,10
WPD Ground Mounted Substation,,33KV,,,,Ground Mounted,890066,EYAM 33KV/11KV S/STN,INTERSECTS,POINT (421902.063 375948.392),"(-1.6729818032746624, 53.28006093684796)",-1.6729818032746624,53.28006093684796,10
WPD Ground Mounted Substation,,33KV,,,,Ground Mounted,890066,EYAM 33KV/11KV S/STN,INTERSECTS,POINT (421895.818 375936.44800000003),"(-1.6730876072815588, 53.27995336131938)",-1.6730876072815588,53.27995336131938,10
WPD Ground Mounted Substation,,33KV,,,,Ground Mounted,890074,MATLOCK 33/11KV S/STN,INTERSECTS,POINT (430152.605 360285.488),"(-1.5507291268869097, 53.13886981087912)",-1.5507291268869097,53.13886981087912,10
WPD Ground Mounted Substation,,33KV,,,,Ground Mounted,890074,MATLOCK 33/11KV S/STN,INTERSECTS,POINT (430155.39900000003 360274.398),"(-1.5506853141694126, 53.13877076634408)",-1.5506853141694126,53.13877076634408,10
WPD Ground Mounted Substation,,33KV,,,,Ground Mounted,920027,GROBY ROAD 33/11KV S/STN,INTERSECTS,POINT (456060.219 306193.84),"(-1.1727862005368186, 52.65058061894076)",-1.1727862005368186,52.65058061894076,10
WPD Ground Mounted Substation,,33KV,,,,Ground Mounted,920027,GROBY ROAD 33/11KV S/STN,INTERSECTS,POINT (456045.901 306200.03),"(-1.1730067106003839, 52.650645087145094)",-1.1730067106003839,52.650645087145094,10
WPD Ground Mounted Substation,,33KV,,,,Ground Mounted,930094,CATERPILLAR DESFORD 33KV/11KV S/STN,INTERSECTS,POINT (447816.99 301622.204),"(-1.2952938795624185, 52.61027933380249)",-1.2952938795624185,52.61027933380249,10
WPD Ground Mounted Substation,,33KV,,,,Ground Mounted,920025,MOUNTSORREL 33KV/11KV S/STN,INTERSECTS,POINT (458693.816 314350.058),"(-1.1324197950089863, 52.72362277460011)",-1.1324197950089863,52.72362277460011,10
WPD Ground Mounted Substation,,33KV,,,,Ground Mounted,920019,SHEPSHED 33KV/11KV S/STN,INTERSECTS,POINT (448334.363 319349.621),"(-1.2850476194019789, 52.76958053010008)",-1.2850476194019789,52.76958053010008,10
WPD Ground Mounted Substation,,33KV,,,,Ground Mounted,920019,SHEPSHED 33KV/11KV S/STN,INTERSECTS,POINT (448338.373 319366.782),"(-1.2849858350291303, 52.769732982831336)",-1.2849858350291303,52.769732982831336,10
WPD Ground Mounted Substation,,33KV,,,,Ground Mounted,920029,BIRSTALL 33KV/11KV S/STN,INTERSECTS,POINT (458947.716 308306.463),"(-1.1297402958230425, 52.66926818413811)",-1.1297402958230425,52.66926818413811,10
WPD Ground Mounted Substation,,33KV,,,,Ground Mounted,920029,BIRSTALL 33KV/11KV S/STN,INTERSECTS,POINT (458947.00200000004 308313.25800000003),"(-1.129739046078467, 52.669331104555965)",-1.129739046078467,52.669331104555965,10
WPD Ground Mounted Substation,,33KV,,,,Ground Mounted,920028,JUPITER 33/11KV S/STN,INTERSECTS,POINT (456635.37 303505.173),"(-1.1647480419540226, 52.62635922355417)",-1.1647480419540226,52.62635922355417,10
WPD Ground Mounted Substation,,33KV,,,,Ground Mounted,920028,JUPITER 33/11KV S/STN,INTERSECTS,POINT (456645.586 303511.53),"(-1.164599299274023, 52.62641211504475)",-1.164599299274023,52.62641211504475,10
WPD Ground Mounted Substation,,33KV,,,,Ground Mounted,920018,BRITISH GYPSUM 33/11KV S/STN,INTERSECTS,POINT (459521.381 316327.59),"(-1.1198041165212733, 52.74130277450138)",-1.1198041165212733,52.74130277450138,10
WPD Ground Mounted Substation,,33KV,,,,Ground Mounted,920018,BRITISH GYPSUM 33/11KV S/STN,INTERSECTS,POINT (459520.588 316326.316),"(-1.119819107819425, 52.741293895880695)",-1.119819107819425,52.741293895880695,10
WPD Ground Mounted Substation,,33KV,,,,Ground Mounted,930097,NAILSTONE 33KV/11KV S/STN,INTERSECTS,POINT (443244.319 308916.73),"(-1.3618545190931322, 52.67622845076582)",-1.3618545190931322,52.67622845076582,10
WPD Ground Mounted Substation,,33KV,,,,Ground Mounted,930097,NAILSTONE 33KV/11KV S/STN,INTERSECTS,POINT (443243.82 308922.243),"(-1.3618685225568952, 52.676282464952344)",-1.3618685225568952,52.676282464952344,10
WPD Ground Mounted Substation,,33KV,,,,Ground Mounted,920030,LEICESTER NORTH 11KV S/STN,INTERSECTS,POINT (458036.071 305792.78500000003),"(-1.143651911273281, 52.6467687504634)",-1.143651911273281,52.6467687504634,10
WPD Ground Mounted Substation,,33KV,,,,Ground Mounted,920030,LEICESTER NORTH 11KV S/STN,INTERSECTS,POINT (458038.488 305800.552),"(-1.1436209501360985, 52.646840446511355)",-1.1436209501360985,52.646840446511355,10
WPD Ground Mounted Substation,,33KV,,,,Ground Mounted,930098,MANTLE LANE COALVILLE 33/11KV S/STN 33KV,INTERSECTS,POINT (442281.50200000004 314518.278),"(-1.3753782231631382, 52.72666109475712)",-1.3753782231631382,52.72666109475712,10
WPD Ground Mounted Substation,,33KV,,,,Ground Mounted,930091,BARDON 33KV/11KV S/STN,INTERSECTS,POINT (444150.944 313060.403),"(-1.3479010441099695, 52.713406202271976)",-1.3479010441099695,52.713406202271976,10
WPD Ground Mounted Substation,,33KV,,,,Ground Mounted,930091,BARDON 33KV/11KV S/STN,INTERSECTS,POINT (444143.694 313067.065),"(-1.3480037175685151, 52.71346969492659)",-1.3480037175685151,52.71346969492659,10
WPD Ground Mounted Substation,,33KV,,,,Ground Mounted,930084,INTERLINK PARK 33KV/11KV S/STN,INTERSECTS,POINT (444253.412 311413.465),"(-1.346597566177188, 52.69859288325207)",-1.346597566177188,52.69859288325207,10
WPD Ground Mounted Substation,,33KV,,,,Ground Mounted,930084,INTERLINK PARK 33KV/11KV S/STN,INTERSECTS,POINT (444257.12 311431.745),"(-1.3465359644344164, 52.69875435988234)",-1.3465359644344164,52.69875435988234,10
WPD Ground Mounted Substation,,33KV,,,,Ground Mounted,920031,BRAUNSTONE 33KV/11KV S/STN,INTERSECTS,POINT (456805.179 301662.117),"(-1.1625529759585558, 52.609775166283896)",-1.1625529759585558,52.609775166283896,10
WPD Ground Mounted Substation,,33KV,,,,Ground Mounted,920031,BRAUNSTONE 33KV/11KV S/STN,INTERSECTS,POINT (456803.67100000003 301668.151),"(-1.162581479416956, 52.60982930779212)",-1.162581479416956,52.60982930779212,10
WPD Ground Mounted Substation,,33KV,,,,Ground Mounted,920025,MOUNTSORREL 33KV/11KV S/STN,INTERSECTS,POINT (458701.596 314361.41000000003),"(-1.1322993985229766, 52.72372078241843)",-1.1322993985229766,52.72372078241843,10
WPD Ground Mounted Substation,,33KV,,,,Ground Mounted,920026,BEAUMONT LEYS 33KV/11KV S/STN,INTERSECTS,POINT (457272.881 308267.52),"(-1.154513623918861, 52.66909683312889)",-1.154513623918861,52.66909683312889,10
WPD Ground Mounted Substation,,33KV,,,,Ground Mounted,920026,BEAUMONT LEYS 33KV/11KV S/STN,INTERSECTS,POINT (457271.456 308275.177),"(-1.1545270223069728, 52.66916884808894)",-1.1545270223069728,52.66916884808894,10
WPD Ground Mounted Substation,,33KV,,,,Ground Mounted,920026,BEAUMONT LEYS 33KV/11KV S/STN,INTERSECTS,POINT (457270.009 308281.862),"(-1.1545407676286406, 52.66922288566777)",-1.1545407676286406,52.66922288566777,10
WPD Ground Mounted Substation,,33KV,,,,Ground Mounted,920024,MANSFIELD ST 33/11KV S/STN 33KV/11KV S/S,INTERSECTS,POINT (458728.764 304869.665),"(-1.1335892004699766, 52.638397873685804)",-1.1335892004699766,52.638397873685804,10
WPD Ground Mounted Substation,,33KV,,,,Ground Mounted,920032,REDCROSS STREET 33KV/11KV S/STN,INTERSECTS,POINT (458402.229 304345.743),"(-1.1384985339481546, 52.63372290706067)",-1.1384985339481546,52.63372290706067,10
WPD Ground Mounted Substation,,33KV,,,,Ground Mounted,920032,REDCROSS STREET 33KV/11KV S/STN,INTERSECTS,POINT (458394.507 304344.745),"(-1.1386169022637778, 52.633714777428274)",-1.1386169022637778,52.633714777428274,10
WPD Ground Mounted Substation,,33KV,,,,Ground Mounted,920024,MANSFIELD ST 33/11KV S/STN 33KV/11KV S/S,INTERSECTS,POINT (458732.373 304876.206),"(-1.133528855420748, 52.63846036244042)",-1.133528855420748,52.63846036244042,10
WPD Ground Mounted Substation,,33KV,,,,Ground Mounted,920022,QUORN 33KV/11KV S/STN,INTERSECTS,POINT (455866.329 317116.653),"(-1.173802146894871, 52.748784045865555)",-1.173802146894871,52.748784045865555,10
WPD Ground Mounted Substation,,33KV,,,,Ground Mounted,920022,QUORN 33KV/11KV S/STN,INTERSECTS,POINT (455856.054 317125.13300000003),"(-1.1739487473539, 52.74886597474081)",-1.1739487473539,52.74886597474081,10
WPD Ground Mounted Substation,,33KV,,,,Ground Mounted,880004,TOTON 3 33KV S/STN,INTERSECTS,POINT (449547.342 335699.029),"(-1.2645925055508667, 52.916435553181564)",-1.2645925055508667,52.916435553181564,10
WPD Ground Mounted Substation,,33KV,,,,Ground Mounted,880004,TOTON 3 33KV S/STN,INTERSECTS,POINT (449551.721 335687.719),"(-1.2645348504585325, 52.91632732251894)",-1.2645348504585325,52.91632732251894,10
WPD Ground Mounted Substation,,33KV,,,,Ground Mounted,870050,LONG EATON 33KV/11KV S/STN,INTERSECTS,POINT (448867.033 333667.042),"(-1.2750093279113661, 52.89823288398148)",-1.2750093279113661,52.89823288398148,10
WPD Ground Mounted Substation,,33KV,,,,Ground Mounted,870050,LONG EATON 33KV/11KV S/STN,INTERSECTS,POINT (448866.506 333664.37200000003),"(-1.2750246420552713, 52.89820600886606)",-1.2750246420552713,52.89820600886606,10
WPD Ground Mounted Substation,,33KV,,,,Ground Mounted,920066,ASTRAZENECA 33/11KV 33KV/11KV S/STN,INTERSECTS,POINT (452875.869 321478.568),"(-1.2174057237651088, 52.78829289714533)",-1.2174057237651088,52.78829289714533,10
WPD Ground Mounted Substation,,33KV,,,,Ground Mounted,920066,ASTRAZENECA 33/11KV 33KV/11KV S/STN,INTERSECTS,POINT (452884.049 321478.011),"(-1.2172722845972508, 52.78829201731069)",-1.2172722845972508,52.78829201731069,10
WPD Ground Mounted Substation,,33KV,,,,Ground Mounted,880017,NORTH WILFORD 33/11KV S/STN,INTERSECTS,POINT (456320.533 337818.498),"(-1.1635098672811215, 52.934815941788486)",-1.1635098672811215,52.934815941788486,10
WPD Ground Mounted Substation,,33KV,,,,Ground Mounted,880017,NORTH WILFORD 33/11KV S/STN,INTERSECTS,POINT (456313.511 337818.536),"(-1.1636140020998262, 52.93481667453663)",-1.1636140020998262,52.93481667453663,10
WPD Ground Mounted Substation,,33KV,,,,Ground Mounted,880018,RATCLIFFE ON SOAR 33KV/11KV S/STN,INTERSECTS,POINT (449819.46400000004 329562.04600000003),"(-1.2614855109822212, 52.86124750708502)",-1.2614855109822212,52.86124750708502,10
WPD Ground Mounted Substation,,33KV,,,,Ground Mounted,880014,LENTON 33KV/11KV S/STN,INTERSECTS,POINT (454602.197 338802.159),"(-1.1889023373471928, 52.94383758438789)",-1.1889023373471928,52.94383758438789,10
WPD Ground Mounted Substation,,33KV,,,,Ground Mounted,880014,LENTON 33KV/11KV S/STN,INTERSECTS,POINT (454596.299 338807.27400000003),"(-1.188990774708282, 52.94388313520819)",-1.188990774708282,52.94388313520819,10
WPD Ground Mounted Substation,,33KV,,,,Ground Mounted,870051,SANDIACRE 33KV/11KV S/STN,INTERSECTS,POINT (447367.91500000004 336358.577),"(-1.2969143992373127, 52.92255520533393)",-1.2969143992373127,52.92255520533393,10
WPD Ground Mounted Substation,,33KV,,,,Ground Mounted,870051,SANDIACRE 33KV/11KV S/STN,INTERSECTS,POINT (447363.886 336346.05100000004),"(-1.2969756364443803, 52.922447693937826)",-1.2969756364443803,52.922447693937826,10
WPD Ground Mounted Substation,,33KV,,,,Ground Mounted,880016,BOOTS 33KV/11KV S/STN,INTERSECTS,POINT (454679.582 336598.075),"(-1.1881273106208137, 52.92401941259263)",-1.1881273106208137,52.92401941259263,10
WPD Ground Mounted Substation,,33KV,,,,Ground Mounted,880016,BOOTS 33KV/11KV S/STN,INTERSECTS,POINT (454692.08900000004 336594.565),"(-1.1879346368585095, 52.92398213827128)",-1.1879346368585095,52.92398213827128,10
WPD Ground Mounted Substation,,33KV,,,,Ground Mounted,930104,WORTHINGTON 33/11KV S/STN,INTERSECTS,POINT (441943.864 320730.953),"(-1.3795902065967918, 52.78252707814528)",-1.3795902065967918,52.78252707814528,10
WPD Ground Mounted Substation,,33KV,,,,Ground Mounted,920021,BRUSH 33/11KV S/STN,INTERSECTS,POINT (454463.531 320717.942),"(-1.1939876009522412, 52.78129500648156)",-1.1939876009522412,52.78129500648156,10
WPD Ground Mounted Substation,,33KV,,,,Ground Mounted,920021,BRUSH 33/11KV S/STN,INTERSECTS,POINT (454472.343 320714.878),"(-1.1938546820951106, 52.78126713457457)",-1.1938546820951106,52.78126713457457,10
WPD Ground Mounted Substation,,33KV,,,,Ground Mounted,870047,CASTLE DONINGTON 33/11KV S/STN,INTERSECTS,POINT (443085.827 327241.663),"(-1.3618037424419824, 52.840964076770994)",-1.3618037424419824,52.840964076770994,10
WPD Ground Mounted Substation,,33KV,,,,Ground Mounted,870047,CASTLE DONINGTON 33/11KV S/STN,INTERSECTS,POINT (443086.483 327230.631),"(-1.361790346530503, 52.840865119667846)",-1.361790346530503,52.840865119667846,10
WPD Ground Mounted Substation,,33KV,,,,Ground Mounted,880028,WEST BRIDGFORD 33KV/11KV S/STN,INTERSECTS,POINT (457928.03 336734.815),"(-1.1397818643395619, 52.92490193010225)",-1.1397818643395619,52.92490193010225,10
WPD Ground Mounted Substation,,33KV,,,,Ground Mounted,880028,WEST BRIDGFORD 33KV/11KV S/STN,INTERSECTS,POINT (457921.54000000004 336732.994),"(-1.139886330914831, 52.9248847070138)",-1.139886330914831,52.9248847070138,10
WPD Ground Mounted Substation,,33KV,,,,Ground Mounted,880030,SNEINTON 33/11KV S/STN 33KV/11KV S/STN,INTERSECTS,POINT (458379.177 339386.825),"(-1.1325978118525937, 52.94868998240375)",-1.1325978118525937,52.94868998240375,10
WPD Ground Mounted Substation,,33KV,,,,Ground Mounted,880030,SNEINTON 33/11KV S/STN 33KV/11KV S/STN,INTERSECTS,POINT (458385.54000000004 339384.658),"(-1.1325088851513185, 52.94867135450312)",-1.1325088851513185,52.94867135450312,10
WPD Ground Mounted Substation,,33KV,,,,Ground Mounted,,,INTERSECTS,POINT (440542.079 334525.867),"(-1.3986502268087886, 52.90663578708213)",-1.3986502268087886,52.90663578708213,10
WPD Ground Mounted Substation,,33KV,,,,Ground Mounted,,,INTERSECTS,POINT (440556.36600000004 334535.62200000003),"(-1.3984408370194115, 52.90672462190179)",-1.3984408370194115,52.90672462190179,10
WPD Ground Mounted Substation,,33KV,,,,Ground Mounted,870014,TRENT LANE 33KV/11KV S/STN,INTERSECTS,POINT (444189.362 328284.327),"(-1.345273974207712, 52.85025021734359)",-1.345273974207712,52.85025021734359,10
WPD Ground Mounted Substation,,33KV,,,,Ground Mounted,870014,TRENT LANE 33KV/11KV S/STN,INTERSECTS,POINT (444185.239 328273.765),"(-1.345334853507424, 52.85015166783183)",-1.345334853507424,52.85015166783183,10
WPD Ground Mounted Substation,,33KV,,,,Ground Mounted,880024,CLIFTON 33KV/11KV S/STN,INTERSECTS,POINT (455345.755 334368.777),"(-1.1786012529825156, 52.903907274412305)",-1.1786012529825156,52.903907274412305,10
WPD Ground Mounted Substation,,33KV,,,,Ground Mounted,880024,CLIFTON 33KV/11KV S/STN,INTERSECTS,POINT (455341.368 334360.451),"(-1.1786620759235902, 52.90383577832047)",-1.1786620759235902,52.90383577832047,10
WPD Ground Mounted Substation,,33KV,,,,Ground Mounted,880025,CASTLE ROAD 33/11KV S/STN,INTERSECTS,POINT (457077.411 339412.239),"(-1.1519684401859265, 52.94906346129)",-1.1519684401859265,52.94906346129,10
WPD Ground Mounted Substation,,33KV,,,,Ground Mounted,880025,CASTLE ROAD 33/11KV S/STN,INTERSECTS,POINT (457081.598 339400.408),"(-1.1519110242735948, 52.94895517759576)",-1.1519110242735948,52.94895517759576,10
WPD Ground Mounted Substation,,33KV,,,,Ground Mounted,870049,LITTLE HALLAM 33KV/11KV S/STN,INTERSECTS,POINT (446494.353 340461.088),"(-1.3093114294591224, 52.9595115260622)",-1.3093114294591224,52.9595115260622,10
WPD Ground Mounted Substation,,33KV,,,,Ground Mounted,870049,LITTLE HALLAM 33KV/11KV S/STN,INTERSECTS,POINT (446492.57 340473.317),"(-1.3093394821014883, 52.9596195618526)",-1.3093394821014883,52.9596195618526,10
WPD Ground Mounted Substation,,33KV,,,,Ground Mounted,890090,MEADOW LANE 33/11KV S/STN,INTERSECTS,POINT (441876.17100000003 356257.77400000003),"(-1.3760077382857707, 53.10187463213166)",-1.3760077382857707,53.10187463213166,10
WPD Ground Mounted Substation,,33KV,,,,Ground Mounted,890090,MEADOW LANE 33/11KV S/STN,INTERSECTS,POINT (441876.724 356266.103),"(-1.3760065680934506, 53.10195552841717)",-1.3760065680934506,53.10195552841717,10
WPD Ground Mounted Substation,,33KV,,,,Ground Mounted,890025,MOORGREEN 33KV/11KV S/STN,INTERSECTS,POINT (447353.933 347533.89),"(-1.29549163129398, 53.023003233327096)",-1.29549163129398,53.023003233327096,10
WPD Ground Mounted Substation,,33KV,,,,Ground Mounted,890025,MOORGREEN 33KV/11KV S/STN,INTERSECTS,POINT (447340.832 347525.386),"(-1.2956865954402232, 53.02293247300595)",-1.2956865954402232,53.02293247300595,10
WPD Ground Mounted Substation,,33KV,,,,Ground Mounted,890099,SHERWOOD PARK 33/11KV S/STN,INTERSECTS,POINT (449592.922 352866.952),"(-1.261295819058476, 53.07073577977885)",-1.261295819058476,53.07073577977885,10
WPD Ground Mounted Substation,,33KV,,,,Ground Mounted,890099,SHERWOOD PARK 33/11KV S/STN,INTERSECTS,POINT (449601.141 352864.288),"(-1.2611618146955477, 53.070716969619056)",-1.2611618146955477,53.070716969619056,10
WPD Ground Mounted Substation,,33KV,,,,Ground Mounted,880022,TALBOT ST 33/11KV S/STN 33KV/11KV S/STN,INTERSECTS,POINT (456898.909 340127.608),"(-1.1545068985069689, 52.955509036651975)",-1.1545068985069689,52.955509036651975,10
WPD Ground Mounted Substation,,33KV,,,,Ground Mounted,880022,TALBOT ST 33/11KV S/STN 33KV/11KV S/STN,INTERSECTS,POINT (456896.49100000004 340138.239),"(-1.1545347376584547, 52.9556081191117)",-1.1545347376584547,52.9556081191117,10
WPD Ground Mounted Substation,,33KV,,,,Ground Mounted,880013,BILBOROUGH 33/11KV S/STN,INTERSECTS,POINT (452922.423 340781.434),"(-1.21357767371238, 52.96179352879911)",-1.21357767371238,52.96179352879911,10
WPD Ground Mounted Substation,,33KV,,,,Ground Mounted,880013,BILBOROUGH 33/11KV S/STN,INTERSECTS,POINT (452913.528 340786.314),"(-1.213710831214755, 52.961839356669735)",-1.213710831214755,52.961839356669735,10
WPD Ground Mounted Substation,,33KV,,,,Ground Mounted,880029,MAPPERLEY 33KV/11KV S/STN,INTERSECTS,POINT (458454.484 341775.98),"(-1.1310514682077362, 52.97015462592635)",-1.1310514682077362,52.97015462592635,10
WPD Ground Mounted Substation,,33KV,,,,Ground Mounted,898163,BENTINCK GENERATING STATION,INTERSECTS,POINT (448996.06200000003 355126.83900000004),"(-1.2698467515492025, 53.091104225267586)",-1.2698467515492025,53.091104225267586,10
WPD Ground Mounted Substation,,33KV,,,,Ground Mounted,890086,SOMERCOTES 33KV/11KV S/STN,INTERSECTS,POINT (442106.901 354381.68),"(-1.372817903558015, 53.084994189413315)",-1.372817903558015,53.084994189413315,10
WPD Ground Mounted Substation,,33KV,,,,Ground Mounted,890086,SOMERCOTES 33KV/11KV S/STN,INTERSECTS,POINT (442102.97500000003 354391.385),"(-1.3728763129262458, 53.08508438890902)",-1.3728763129262458,53.08508438890902,10
WPD Ground Mounted Substation,,33KV,,,,Ground Mounted,870007,HEANOR 33KV/11KV S/STN,INTERSECTS,POINT (442877.06200000003 347279.004),"(-1.362250599716351, 53.021096493010326)",-1.362250599716351,53.021096493010326,10
WPD Ground Mounted Substation,,33KV,,,,Ground Mounted,870007,HEANOR 33KV/11KV S/STN,INTERSECTS,POINT (442888.257 347270.435),"(-1.3620878184953518, 53.021014716868216)",-1.3620878184953518,53.021014716868216,10
WPD Ground Mounted Substation,,33KV,,,,Ground Mounted,880019,BULWELL 33KV/11KV S/STN,INTERSECTS,POINT (453870.099 345282.648),"(-1.1987179840407853, 53.00215575718745)",-1.1987179840407853,53.00215575718745,10
WPD Ground Mounted Substation,,33KV,,,,Ground Mounted,880019,BULWELL 33KV/11KV S/STN,INTERSECTS,POINT (453864.15 345290.607),"(-1.1988060512243832, 53.00222826560094)",-1.1988060512243832,53.00222826560094,10
WPD Ground Mounted Substation,,33KV,,,,Ground Mounted,880027,ARNOLD 33KV/11KV S/STN,INTERSECTS,POINT (458868.623 345948.78500000003),"(-1.1241294498187155, 53.00761689658743)",-1.1241294498187155,53.00761689658743,10
WPD Ground Mounted Substation,,33KV,,,,Ground Mounted,880027,ARNOLD 33KV/11KV S/STN,INTERSECTS,POINT (458863.859 345944.968),"(-1.1242046836932675, 53.00758149274583)",-1.1242046836932675,53.00758149274583,10
WPD Ground Mounted Substation,,33KV,,,,Ground Mounted,880026,MARLBOROUGH RD 33/11KV S/STN,INTERSECTS,POINT (458215.391 343997.458),"(-1.134210760178571, 52.990152285462656)",-1.134210760178571,52.990152285462656,10
WPD Ground Mounted Substation,,33KV,,,,Ground Mounted,898541,HERMITAGE LANE GENERATION 33KV/11KV S/ST,INTERSECTS,POINT (452450.166 359794.86100000003),"(-1.2175158186058628, 53.132733524602564)",-1.2175158186058628,53.132733524602564,10
WPD Ground Mounted Substation,,33KV,,,,Ground Mounted,880015,CINDERHILL 33KV/11KV S/STN,INTERSECTS,POINT (453687.103 343696.168),"(-1.2017074841590683, 52.98791865085353)",-1.2017074841590683,52.98791865085353,10
WPD Ground Mounted Substation,,33KV,,,,Ground Mounted,880015,CINDERHILL 33KV/11KV S/STN,INTERSECTS,POINT (453677.044 343684.547),"(-1.201858419608088, 52.98781179075885)",-1.201858419608088,52.98781179075885,10
WPD Ground Mounted Substation,,33KV,,,,Ground Mounted,880020,WOLLATON ROAD 33/11KV S/STN,INTERSECTS,POINT (454930.336 340060.55),"(-1.1838090778079007, 52.95511150431316)",-1.1838090778079007,52.95511150431316,10
WPD Ground Mounted Substation,,33KV,,,,Ground Mounted,880020,WOLLATON ROAD 33/11KV S/STN,INTERSECTS,POINT (454926.357 340060.317),"(-1.1838686115767405, 52.955111912981366)",-1.1838686115767405,52.955111912981366,10
WPD Ground Mounted Substation,,33KV,,,,Ground Mounted,880011,HUCKNALL 33KV/11KV S/STN,INTERSECTS,POINT (453811.773 349626.441),"(-1.1988742943001318, 53.0412066472509)",-1.1988742943001318,53.0412066472509,10
WPD Ground Mounted Substation,,33KV,,,,Ground Mounted,880011,HUCKNALL 33KV/11KV S/STN,INTERSECTS,POINT (453825.7 349633.733),"(-1.1986643441293843, 53.0412681590703)",-1.1986643441293843,53.0412681590703,10
WPD Ground Mounted Substation,,33KV,,,,Ground Mounted,880040,ST ANNS 33/11KV S/STN 33KV/11KV S/STN,INTERSECTS,POINT (457664.67600000004 340281.362),"(-1.143078834590146, 52.95681160301711)",-1.143078834590146,52.95681160301711,10
WPD Ground Mounted Substation,,33KV,,,,Ground Mounted,880040,ST ANNS 33/11KV S/STN 33KV/11KV S/STN,INTERSECTS,POINT (457657.129 340283.222),"(-1.143182666460132, 52.95683033033189)",-1.143182666460132,52.95683033033189,10
WPD Ground Mounted Substation,,33KV,,,,Ground Mounted,880040,ST ANNS 33/11KV S/STN 33KV/11KV S/STN,INTERSECTS,POINT (457664.956 340280.913),"(-1.1430790122267456, 52.95680261479274)",-1.1430790122267456,52.95680261479274,10
WPD Ground Mounted Substation,,33KV,,,,Ground Mounted,883362,WATNALL 33/11KV 33KV/11KV S/STN,INTERSECTS,POINT (450413.57300000003 345825.878),"(-1.2501421190694613, 53.007372260142446)",-1.2501421190694613,53.007372260142446,10
WPD Ground Mounted Substation,,33KV,,,,Ground Mounted,883362,WATNALL 33/11KV 33KV/11KV S/STN,INTERSECTS,POINT (450408.17600000004 345838.493),"(-1.2502146031113925, 53.00748957874386)",-1.2502146031113925,53.00748957874386,10
WPD Ground Mounted Substation,,33KV,,,,Ground Mounted,890007,ANNESLEY 33KV/11KV S/STN,INTERSECTS,POINT (450644.67100000003 354816.121),"(-1.2452899297029825, 53.088164435883456)",-1.2452899297029825,53.088164435883456,10
WPD Ground Mounted Substation,,33KV,,,,Ground Mounted,890007,ANNESLEY 33KV/11KV S/STN,INTERSECTS,POINT (450634.194 354823.8),"(-1.2454381248146709, 53.088228299901196)",-1.2454381248146709,53.088228299901196,10
WPD Ground Mounted Substation,,33KV,,,,Ground Mounted,890091,WESTHORPE 33KV/11KV S/STN,INTERSECTS,POINT (445636.03500000003 379315.461),"(-1.3165657071637584, 53.308817437587564)",-1.3165657071637584,53.308817437587564,10
WPD Ground Mounted Substation,,33KV,,,,Ground Mounted,890091,WESTHORPE 33KV/11KV S/STN,INTERSECTS,POINT (445640.916 379319.68700000003),"(-1.316505106686584, 53.308853046035075)",-1.316505106686584,53.308853046035075,10
WPD Ground Mounted Substation,,33KV,,,,Ground Mounted,890042,HOLME CARR 33/11KV 33KV/11KV S/STN,INTERSECTS,POINT (455719.599 379916.498),"(-1.165152814971827, 53.31325658965896)",-1.165152814971827,53.31325658965896,10
WPD Ground Mounted Substation,,33KV,,,,Ground Mounted,890042,HOLME CARR 33/11KV 33KV/11KV S/STN,INTERSECTS,POINT (455727.971 379919.429),"(-1.165032227747465, 53.313282712867114)",-1.165032227747465,53.313282712867114,10
WPD Ground Mounted Substation,,33KV,,,,Ground Mounted,890047,RUFFORD 33KV/11KV S/STN,INTERSECTS,POINT (459644.895 360398.26900000003),"(-1.1098926306419898, 53.13740739209684)",-1.1098926306419898,53.13740739209684,10
WPD Ground Mounted Substation,,33KV,,,,Ground Mounted,890047,RUFFORD 33KV/11KV S/STN,INTERSECTS,POINT (459639.58900000004 360398.564),"(-1.109967361048101, 53.13740795052114)",-1.109967361048101,53.13740795052114,10
WPD Ground Mounted Substation,,33KV,,,,Ground Mounted,890015,STAVELEY 33KV S/STN 33KV/11KV S/STN,INTERSECTS,POINT (441118.544 374646.871),"(-1.3849690837366664, 53.26722050510516)",-1.3849690837366664,53.26722050510516,10
WPD Ground Mounted Substation,,33KV,,,,Ground Mounted,890015,STAVELEY 33KV S/STN 33KV/11KV S/STN,INTERSECTS,POINT (441112.3 374652.366),"(-1.385058263829587, 53.2672748982773)",-1.385058263829587,53.2672748982773,10
WPD Ground Mounted Substation,,33KV,,,,Ground Mounted,890034,SHIREBROOK 33KV/11KV S/STN,INTERSECTS,POINT (450598.954 366819.362),"(-1.2440855825219834, 53.196053763754854)",-1.2440855825219834,53.196053763754854,10
WPD Ground Mounted Substation,,33KV,,,,Ground Mounted,890094,DANESMOOR 33KV/11KV S/STN,INTERSECTS,POINT (440590.612 363091.532),"(-1.3943510093775133, 53.16340085945564)",-1.3943510093775133,53.16340085945564,10
WPD Ground Mounted Substation,,33KV,,,,Ground Mounted,890083,ECKINGTON 33KV/11KV S/STN,INTERSECTS,POINT (442312 378659.205),"(-1.3665353680108523, 53.3031964470629)",-1.3665353680108523,53.3031964470629,10
WPD Ground Mounted Substation,,33KV,,,,Ground Mounted,898500,ERIN ROAD,INTERSECTS,POINT (444575.668 373560.16000000003),"(-1.3332930528979356, 53.25718089880307)",-1.3332930528979356,53.25718089880307,10
WPD Ground Mounted Substation,,33KV,,,,Ground Mounted,898500,ERIN ROAD,INTERSECTS,POINT (444587.95900000003 373552.085),"(-1.3331143077713539, 53.25710798799122)",-1.3331143077713539,53.25710798799122,10
WPD Ground Mounted Substation,,33KV,,,,Ground Mounted,890032,CRAGGS LANE 33/11KV S/STN,INTERSECTS,POINT (453454.119 375530.005),"(-1.1998821327600275, 53.2740688852136)",-1.1998821327600275,53.2740688852136,10
WPD Ground Mounted Substation,,33KV,,,,Ground Mounted,890032,CRAGGS LANE 33/11KV S/STN,INTERSECTS,POINT (453457.978 375523.01900000003),"(-1.1998383251264528, 53.27400566839104)",-1.1998383251264528,53.27400566839104,10
WPD Ground Mounted Substation,,33KV,,,,Ground Mounted,890043,KILTON RD 33KV/ 25KV 11KV/ LV S/STN,INTERSECTS,POINT (459308.652 379401.433),"(-1.1113870729145625, 53.308238997955975)",-1.1113870729145625,53.308238997955975,10
WPD Ground Mounted Substation,,33KV,,,,Ground Mounted,890043,KILTON RD 33KV/ 25KV 11KV/ LV S/STN,INTERSECTS,POINT (459310.212 379408.005),"(-1.1113557554961024, 53.30830168775811)",-1.1113557554961024,53.30830168775811,10
WPD Ground Mounted Substation,,33KV,,,,Ground Mounted,890035,ACREAGE LANE 33/11KV S/STN,INTERSECTS,POINT (452991.587 366749.76300000004),"(-1.2082814473875647, 53.195192079517135)",-1.2082814473875647,53.195192079517135,10
WPD Ground Mounted Substation,,33KV,,,,Ground Mounted,890035,ACREAGE LANE 33/11KV S/STN,INTERSECTS,POINT (452998.061 366753.878),"(-1.208176019294708, 53.19522733560076)",-1.208176019294708,53.19522733560076,10
WPD Ground Mounted Substation,,33KV,,,,Ground Mounted,890030,SKEGBY LANE 33/11KV S/STN,INTERSECTS,POINT (452429.985 360348.00800000003),"(-1.2177392483282303, 53.137715004784866)",-1.2177392483282303,53.137715004784866,10
WPD Ground Mounted Substation,,33KV,,,,Ground Mounted,890039,LIME TREE PLACE 33/11KV S/STN,INTERSECTS,POINT (454208.536 360780.657),"(-1.191076471117505, 53.14142026010646)",-1.191076471117505,53.14142026010646,10
WPD Ground Mounted Substation,,33KV,,,,Ground Mounted,,,INTERSECTS,POINT (454198.645 360758.277),"(-1.1912296621437994, 53.14122353788982)",-1.1912296621437994,53.14122353788982,10
WPD Ground Mounted Substation,,33KV,,,,Ground Mounted,920041,SOUTH CROXTON 33KV/11KV S/STN,INTERSECTS,POINT (467747.317 311432.57300000003),"(-0.998985896769958, 52.696339027579256)",-0.998985896769958,52.696339027579256,10
WPD Ground Mounted Substation,,33KV,,,,Ground Mounted,920044,HAMILTON 33KV/11KV S/STN,INTERSECTS,POINT (462415.253 307165.27),"(-1.0786789176244815, 52.65862480198273)",-1.0786789176244815,52.65862480198273,10
WPD Ground Mounted Substation,,33KV,,,,Ground Mounted,920044,HAMILTON 33KV/11KV S/STN,INTERSECTS,POINT (462424.711 307162.12),"(-1.0785464453408034, 52.65859680235238)",-1.0785464453408034,52.65859680235238,10
WPD Ground Mounted Substation,,33KV,,,,Ground Mounted,920037,SALUTATION 33/6.6KV S/STN 6.6KV/LV S/STN,INTERSECTS,POINT (461056.379 305788.385),"(-1.0990223310054656, 52.64640195504131)",-1.0990223310054656,52.64640195504131,10
WPD Ground Mounted Substation,,33KV,,,,Ground Mounted,920037,SALUTATION 33/6.6KV S/STN 6.6KV/LV S/STN,INTERSECTS,POINT (461050.59500000003 305789.723),"(-1.0991108149035702, 52.646411617594545)",-1.0991108149035702,52.646411617594545,10
WPD Ground Mounted Substation,,33KV,,,,Ground Mounted,920034,THURMASTON 33KV/11KV S/STN,INTERSECTS,POINT (461354.596 307765.45),"(-1.0942513639752847, 52.66413879445565)",-1.0942513639752847,52.66413879445565,10
WPD Ground Mounted Substation,,33KV,,,,Ground Mounted,920034,THURMASTON 33KV/11KV S/STN,INTERSECTS,POINT (461345.72500000003 307766.824),"(-1.0943842347316113, 52.66414879951767)",-1.0943842347316113,52.66414879951767,10
WPD Ground Mounted Substation,,33KV,,,,Ground Mounted,910049,REGENT STREET MELTON 33KV/11KV S/STN,INTERSECTS,POINT (475695.063 319027.471),"(-0.8796544650946302, 52.76355090400399)",-0.8796544650946302,52.76355090400399,10
WPD Ground Mounted Substation,,33KV,,,,Ground Mounted,910049,REGENT STREET MELTON 33KV/11KV S/STN,INTERSECTS,POINT (475706.406 319030.42100000003),"(-0.8794907891945204, 52.763576328376274)",-0.8794907891945204,52.763576328376274,10
WPD Ground Mounted Substation,,33KV,,,,Ground Mounted,920042,THURNBY 33/11KV S/STN 33KV/11KV S/STN,INTERSECTS,POINT (464210.105 304525.152),"(-1.052657959409671, 52.63468603911291)",-1.052657959409671,52.63468603911291,10
WPD Ground Mounted Substation,,33KV,,,,Ground Mounted,920042,THURNBY 33/11KV S/STN 33KV/11KV S/STN,INTERSECTS,POINT (464209.996 304533.46),"(-1.0526711805131517, 52.63475806514403)",-1.0526711805131517,52.63475806514403,10
WPD Ground Mounted Substation,,33KV,,,,Ground Mounted,920038,STONEYGATE 33/6.6KV S/STN,INTERSECTS,POINT (460931.76300000004 302396.212),"(-1.1014941998722019, 52.61592658273813)",-1.1014941998722019,52.61592658273813,10
WPD Ground Mounted Substation,,33KV,,,,Ground Mounted,920038,STONEYGATE 33/6.6KV S/STN,INTERSECTS,POINT (460934.126 302392.887),"(-1.101450632289546, 52.615890292215674)",-1.101450632289546,52.615890292215674,10
WPD Ground Mounted Substation,,33KV,,,,Ground Mounted,880036,COTGRAVE 33KV/11KV S/STN,INTERSECTS,POINT (465239.63 336701.467),"(-1.0310552641674737, 52.923768618050225)",-1.0310552641674737,52.923768618050225,10
WPD Ground Mounted Substation,,33KV,,,,Ground Mounted,880036,COTGRAVE 33KV/11KV S/STN,INTERSECTS,POINT (465268.069 336687.358),"(-1.0306267840527605, 52.923639269181514)",-1.0306267840527605,52.923639269181514,10
WPD Ground Mounted Substation,,33KV,,,,Ground Mounted,883330,WILLOUGHBY STOR 33KV GENERATION 33KV/11K,INTERSECTS,POINT (462655.917 325776.882),"(-1.0715838320138107, 52.82587993497976)",-1.0715838320138107,52.82587993497976,10
WPD Ground Mounted Substation,,33KV,,,,Ground Mounted,880006,WILLOUGHBY 33KV/11KV S/STN,INTERSECTS,POINT (462713.213 325777.743),"(-1.0707229899586455, 52.825882190549265)",-1.0707229899586455,52.825882190549265,10
WPD Ground Mounted Substation,,33KV,,,,Ground Mounted,880006,WILLOUGHBY 33KV/11KV S/STN,INTERSECTS,POINT (462704.87700000004 325772.13300000003),"(-1.0708574976519984, 52.82583829444872)",-1.0708574976519984,52.82583829444872,10
WPD Ground Mounted Substation,,33KV,,,,Ground Mounted,880033,KEYWORTH 33KV/11KV S/STN,INTERSECTS,POINT (462033.266 330567.958),"(-1.0799038342375815, 52.869014394293565)",-1.0799038342375815,52.869014394293565,10
WPD Ground Mounted Substation,,33KV,,,,Ground Mounted,880033,KEYWORTH 33KV/11KV S/STN,INTERSECTS,POINT (462030.153 330557.124),"(-1.079950296090558, 52.868924857395626)",-1.079950296090558,52.868924857395626,10
WPD Ground Mounted Substation,,33KV,,,,Ground Mounted,880039,BINGHAM 33KV/11KV S/STN,INTERSECTS,POINT (470945.579 339564.669),"(-0.945571847397293, 52.94877838212801)",-0.945571847397293,52.94877838212801,10
WPD Ground Mounted Substation,,33KV,,,,Ground Mounted,880039,BINGHAM 33KV/11KV S/STN,INTERSECTS,POINT (470943.768 339557.994),"(-0.9456031375335859, 52.94871573206568)",-0.9456031375335859,52.94871573206568,10
WPD Ground Mounted Substation,,33KV,,,,Ground Mounted,880034,GEDLING 33/11KV S/STN,INTERSECTS,POINT (461126.3 343471.109),"(-1.0909502063279277, 52.985101024486475)",-1.0909502063279277,52.985101024486475,10
WPD Ground Mounted Substation,,33KV,,,,Ground Mounted,880034,GEDLING 33/11KV S/STN,INTERSECTS,POINT (461116.58400000003 343448.243),"(-1.091103478115957, 52.984895437532245)",-1.091103478115957,52.984895437532245,10
WPD Ground Mounted Substation,,33KV,,,,Ground Mounted,690070,BOWBRIDGE GENERATION STOR 33KV,INTERSECTS,POINT (479953.455 351074.795),"(-0.808691851342862, 53.05095682852392)",-0.808691851342862,53.05095682852392,10
WPD Ground Mounted Substation,,33KV,,,,Ground Mounted,880038,SIBTHORPE 33KV/11KV S/STN,INTERSECTS,POINT (475578.39400000003 345274.874),"(-0.8753015356264789, 52.99946536041845)",-0.8753015356264789,52.99946536041845,10
WPD Ground Mounted Substation,,33KV,,,,Ground Mounted,880037,CAYTHORPE 33/11KV S/STN 33KV/11KV S/STN,INTERSECTS,POINT (467776.914 345950.46),"(-0.9913925915888392, 53.006583434370434)",-0.9913925915888392,53.006583434370434,10
WPD Ground Mounted Substation,,33KV,,,,Ground Mounted,880037,CAYTHORPE 33/11KV S/STN 33KV/11KV S/STN,INTERSECTS,POINT (467747.66000000003 345979.637),"(-0.9918186296498923, 53.006847742758254)",-0.9918186296498923,53.006847742758254,10
WPD Ground Mounted Substation,,33KV,,,,Ground Mounted,880035,COLWICK 33KV/11KV S/STN,INTERSECTS,POINT (461867.525 340734.695),"(-1.0804364269757536, 52.960415870673174)",-1.0804364269757536,52.960415870673174,10
WPD Ground Mounted Substation,,33KV,,,,Ground Mounted,880035,COLWICK 33KV/11KV S/STN,INTERSECTS,POINT (461872.158 340729.596),"(-1.080362956021435, 52.96037035470837)",-1.080362956021435,52.96037035470837,10
WPD Ground Mounted Substation,,33KV,,,,Ground Mounted,890062,WOODBECK 33KV/11KV S/STN,INTERSECTS,POINT (477807.231 378465.51300000004),"(-0.834045043624255, 53.29743719860667)",-0.834045043624255,53.29743719860667,10
WPD Ground Mounted Substation,,33KV,,,,Ground Mounted,898181,STONISH HILL WINDFARM 33KV/11KV S/STN,INTERSECTS,POINT (466177.87200000003 362038.018),"(-1.0119139253408223, 53.151377377087464)",-1.0119139253408223,53.151377377087464,10
WPD Ground Mounted Substation,,33KV,,,,Ground Mounted,898326,BILSTHORPE SOLAR 33KV/11KV S/STN,INTERSECTS,POINT (465818.969 361162.00800000003),"(-1.0174608470313575, 53.143548622266906)",-1.0174608470313575,53.143548622266906,10
WPD Ground Mounted Substation,,33KV,,,,Ground Mounted,890057,NORTH WHEATLEY 33KV/11KV S/STN,INTERSECTS,POINT (474452.586 386672.708),"(-0.8824467773401238, 53.37167434441257)",-0.8824467773401238,53.37167434441257,10
WPD Ground Mounted Substation,,33KV,,,,Ground Mounted,910056,EMPINGHAM 33/11KV S/STN,INTERSECTS,POINT (495079.199 308083.077),"(-0.5956337334080296, 52.662138888655996)",-0.5956337334080296,52.662138888655996,10
WPD Ground Mounted Substation,,33KV,,,,Ground Mounted,910056,EMPINGHAM 33/11KV S/STN,INTERSECTS,POINT (495088.598 308089.846),"(-0.5954989778844368, 52.66219123419682)",-0.5954989778844368,52.66219123419682,10
WPD Ground Mounted Substation,,33KV,,,,Ground Mounted,,,INTERSECTS,POINT (480159.374 351012.16000000003),"(-0.8056348235648307, 53.05036882603277)",-0.8056348235648307,53.05036882603277,10
WPD Ground Mounted Substation,,33KV,,,,Ground Mounted,,,INTERSECTS,POINT (480171.934 351009.641),"(-0.8054565948942388, 53.05034006803629)",-0.8054565948942388,53.05034006803629,10
WPD Ground Mounted Substation,,33KV,,,,Ground Mounted,910037,WESTBOROUGH 33KV/11KV S/STN,INTERSECTS,POINT (484763.45900000003 344961.634),"(-0.7385570021761028, 52.99527975189363)",-0.7385570021761028,52.99527975189363,10
WPD Ground Mounted Substation,,33KV,,,,Ground Mounted,900024,NEWARK JUNCTION 33KV/11KV S/STN,INTERSECTS,POINT (480574.61 354123.771),"(-0.7986677612160835, 53.07826537737991)",-0.7986677612160835,53.07826537737991,10
WPD Ground Mounted Substation,,33KV,,,,Ground Mounted,900024,NEWARK JUNCTION 33KV/11KV S/STN,INTERSECTS,POINT (480569.65400000004 354119.837),"(-0.7987433822837708, 53.07823018224658)",-0.7987433822837708,53.07823018224658,10
WPD Ground Mounted Substation,,33KV,,,,Ground Mounted,900011,FERNWOOD 33KV/11KV S/STN,INTERSECTS,POINT (482089.348 350136.659),"(-0.7770728949191785, 53.042203762021664)",-0.7770728949191785,53.042203762021664,10
WPD Ground Mounted Substation,,33KV,,,,Ground Mounted,900011,FERNWOOD 33KV/11KV S/STN,INTERSECTS,POINT (482088.88800000004 350148.876),"(-0.7770847547840659, 53.04231175990797)",-0.7770847547840659,53.04231175990797,10
WPD Ground Mounted Substation,,33KV,,,,Ground Mounted,900025,SWINDERBY 33KV/11KV S/STN,INTERSECTS,POINT (486133.614 364135.715),"(-0.7130222449831485, 53.16737408024388)",-0.7130222449831485,53.16737408024388,10
WPD Ground Mounted Substation,,33KV,,,,Ground Mounted,900029,NORTH HYKEHAM 33KV/11KV S/STN,INTERSECTS,POINT (493675.027 367058.555),"(-0.5993841255545749, 53.19236890571733)",-0.5993841255545749,53.19236890571733,10
WPD Ground Mounted Substation,,33KV,,,,Ground Mounted,900032,ANDERSON LANE LINCOLN 33/11KV S/STN,INTERSECTS,POINT (497589.335 372722.14),"(-0.5390913971067136, 53.2425623385273)",-0.5390913971067136,53.2425623385273,10
WPD Ground Mounted Substation,,33KV,,,,Ground Mounted,900031,RUSTON & HORNSBY 33KV/6.6KV S/STN,INTERSECTS,POINT (496732.016 370765.241),"(-0.5525222991414744, 53.225133487458876)",-0.5525222991414744,53.225133487458876,10
WPD Ground Mounted Substation,,33KV,,,,Ground Mounted,900009,BEEVOR STREET 33/11KV S/STN,INTERSECTS,POINT (496728.571 370784.781),"(-0.5525764366875905, 53.225304947904334)",-0.5525764366875905,53.225304947904334,10
WPD Ground Mounted Substation,,33KV,,,,Ground Mounted,900009,BEEVOR STREET 33/11KV S/STN,INTERSECTS,POINT (496719.64400000003 370789.419),"(-0.5527096850663283, 53.225351514111836)",-0.5527096850663283,53.225351514111836,10
WPD Ground Mounted Substation,,33KV,,,,Ground Mounted,900031,RUSTON & HORNSBY 33KV/6.6KV S/STN,INTERSECTS,POINT (496741.79000000004 370774.808),"(-0.5523848090992014, 53.22521272436818)",-0.5523848090992014,53.22521272436818,10
WPD Ground Mounted Substation,,33KV,,,,Ground Mounted,900030,ROOKERY LANE LINCOLN 33/11KV S/STN,INTERSECTS,POINT (496182.639 369101.107),"(-0.561258940581696, 53.21028051731978)",-0.561258940581696,53.21028051731978,10
WPD Ground Mounted Substation,,33KV,,,,Ground Mounted,900030,ROOKERY LANE LINCOLN 33/11KV S/STN,INTERSECTS,POINT (496169.45 369104.905),"(-0.5614526283130963, 53.21030982441997)",-0.5614526283130963,53.21030982441997,10
WPD Ground Mounted Substation,,33KV,,,,Ground Mounted,900028,DODDINGTON PARK 33KV/11KV S/STN,INTERSECTS,POINT (492564.558 368551.744),"(-0.6155753672067389, 53.205979601511515)",-0.6155753672067389,53.205979601511515,10
WPD Ground Mounted Substation,,33KV,,,,Ground Mounted,900028,DODDINGTON PARK 33KV/11KV S/STN,INTERSECTS,POINT (492556.8 368554.712),"(-0.6156942373613206, 53.20600795115495)",-0.6156942373613206,53.20600795115495,10
WPD Ground Mounted Substation,,33KV,,,,Ground Mounted,904540,EFW PAVING WAY 33KV SW STN,INTERSECTS,POINT (493046.409 367755.60000000003),"(-0.6085927966730282, 53.19874255525612)",-0.6085927966730282,53.19874255525612,10
WPD Ground Mounted Substation,,33KV,,,,Ground Mounted,900025,SWINDERBY 33KV/11KV S/STN,INTERSECTS,POINT (486136.658 364129.666),"(-0.7129789945561488, 53.167319675714154)",-0.7129789945561488,53.167319675714154,10
WPD Ground Mounted Substation,,33KV,,,,Ground Mounted,,,INTERSECTS,POINT (498972.316 371242.391),"(-0.5188338703992461, 53.22900767689746)",-0.5188338703992461,53.22900767689746,10
WPD Ground Mounted Substation,,33KV,,,,Ground Mounted,600173,MERLINS BRIDGE 33KV/11KV S/STN,INTERSECTS,POINT (194805.89800000002 214549.702),"(-4.976828812070284, 51.79185832914715)",-4.976828812070284,51.79185832914715,10
WPD Ground Mounted Substation,,33KV,,,,Ground Mounted,600173,MERLINS BRIDGE 33KV/11KV S/STN,INTERSECTS,POINT (194807.7 214549.711),"(-4.9767998533429445, 51.7918590629905)",-4.9767998533429445,51.7918590629905,10
WPD Ground Mounted Substation,,33KV,,,,Ground Mounted,600014,GOLDEN HILL GRID 132/11KV S/STN,INTERSECTS,POINT (199079 202362),"(-4.907901858667529, 51.68397740772791)",-4.907901858667529,51.68397740772791,10
WPD Ground Mounted Substation,,33KV,,,,Ground Mounted,600014,GOLDEN HILL GRID 132/11KV S/STN,INTERSECTS,POINT (199077.75 202362),"(-4.907930750306814, 51.68397669190372)",-4.907930750306814,51.68397669190372,10
WPD Ground Mounted Substation,,33KV,,,,Ground Mounted,600014,GOLDEN HILL GRID 132/11KV S/STN,INTERSECTS,POINT (199079.75 202363.5),"(-4.907902434452179, 51.68398638731681)",-4.907902434452179,51.68398638731681,10
WPD Ground Mounted Substation,,33KV,,,,Ground Mounted,600014,GOLDEN HILL GRID 132/11KV S/STN,INTERSECTS,POINT (199076 202363.5),"(-4.907945771919213, 51.68398531357751)",-4.907945771919213,51.68398531357751,10
WPD Ground Mounted Substation,,33KV,,,,Ground Mounted,600232,STEYNTON 33KV/11KV S/STN,INTERSECTS,POINT (191614 207670),"(-5.018905015598284, 51.72891493743209)",-5.018905015598284,51.72891493743209,10
WPD Ground Mounted Substation,,33KV,,,,Ground Mounted,600232,STEYNTON 33KV/11KV S/STN,INTERSECTS,POINT (191614.75 207670),"(-5.018905015598284, 51.72891493743209)",-5.018905015598284,51.72891493743209,10
WPD Ground Mounted Substation,,33KV,,,,Ground Mounted,600017,HAVERFORDWEST POWER STN 33KV/11KV S/STN,INTERSECTS,POINT (195730.75 215699),"(-4.96411287970782, 51.802522781166154)",-4.96411287970782,51.802522781166154,10
WPD Ground Mounted Substation,,33KV,,,,Ground Mounted,600017,HAVERFORDWEST POWER STN 33KV/11KV S/STN,INTERSECTS,POINT (195731.75 215699),"(-4.9640983967612975, 51.80252314657574)",-4.9640983967612975,51.80252314657574,10
WPD Ground Mounted Substation,,33KV,,,,Ground Mounted,600279,MILFORD HAVEN PRIMARY 33/11KV S/STN,INTERSECTS,POINT (190033.24300000002 206154.513),"(-5.040849687958048, 51.71471360169038)",-5.040849687958048,51.71471360169038,10
WPD Ground Mounted Substation,,33KV,,,,Ground Mounted,600076,BRAWDY,INTERSECTS,POINT (187002.30000000002 225507.9),"(-5.096550010698049, 51.88732005319211)",-5.096550010698049,51.88732005319211,10
WPD Ground Mounted Substation,,33KV,,,,Ground Mounted,600076,BRAWDY,INTERSECTS,POINT (187001.1 225507.89500000002),"(-5.096564519104979, 51.88731967103249)",-5.096564519104979,51.88731967103249,10
WPD Ground Mounted Substation,,33KV,,,,Ground Mounted,600085,BROADFIELD 33KV/11KV S/STN,INTERSECTS,POINT (213141.25 203694.5),"(-4.70544962698598, 51.70079771835994)",-4.70544962698598,51.70079771835994,10
WPD Ground Mounted Substation,,33KV,,,,Ground Mounted,600085,BROADFIELD 33KV/11KV S/STN,INTERSECTS,POINT (213142.25 203694.5),"(-4.705435173304034, 51.70079805144888)",-4.705435173304034,51.70079805144888,10
WPD Ground Mounted Substation,,33KV,,,,Ground Mounted,600229,ST FLORENCE 33/11KV S/STN,INTERSECTS,POINT (207769 201624.25),"(-4.781949984770929, 51.680392973577405)",-4.781949984770929,51.680392973577405,10
WPD Ground Mounted Substation,,33KV,,,,Ground Mounted,600184,NEVERN 33KV/11KV S/STN,INTERSECTS,POINT (208451.25 238947),"(-4.792782698114282, 52.01579838128937)",-4.792782698114282,52.01579838128937,10
WPD Ground Mounted Substation,,33KV,,,,Ground Mounted,600184,NEVERN 33KV/11KV S/STN,INTERSECTS,POINT (208450.25 238947),"(-4.792797252015406, 52.015798035986606)",-4.792797252015406,52.015798035986606,10
WPD Ground Mounted Substation,,33KV,,,,Ground Mounted,580276,NEWCASTLE EMLYN SOUTH 33/11KV S/STN,INTERSECTS,POINT (230540.69700000001 240371.01200000002),"(-4.471938593375546, 52.035778149117704)",-4.471938593375546,52.035778149117704,10
WPD Ground Mounted Substation,,33KV,,,,Ground Mounted,580276,NEWCASTLE EMLYN SOUTH 33/11KV S/STN,INTERSECTS,POINT (230541.899 240371.011),"(-4.471924029234139, 52.03577845486134)",-4.471924029234139,52.03577845486134,10
WPD Ground Mounted Substation,,33KV,,,,Ground Mounted,520209,PONTYATES 33/11KV S/STN,INTERSECTS,POINT (246414 208281.761),"(-4.226412231624408, 51.75210783405912)",-4.226412231624408,51.75210783405912,10
WPD Ground Mounted Substation,,33KV,,,,Ground Mounted,520209,PONTYATES 33/11KV S/STN,INTERSECTS,POINT (246413 208281.75),"(-4.226426706895056, 51.75210755971663)",-4.226426706895056,51.75210755971663,10
WPD Ground Mounted Substation,,33KV,,,,Ground Mounted,,,INTERSECTS,POINT (241998.16400000002 207389.135),"(-4.289927286860834, 51.74286533902077)",-4.289927286860834,51.74286533902077,10
WPD Ground Mounted Substation,,33KV,,,,Ground Mounted,520307,CROSS HANDS 33KV/11KV S/STN,INTERSECTS,POINT (256957.786 211719.903),"(-4.0752038930664, 51.785792127135245)",-4.0752038930664,51.785792127135245,10
WPD Ground Mounted Substation,,33KV,,,,Ground Mounted,520307,CROSS HANDS 33KV/11KV S/STN,INTERSECTS,POINT (256948.663 211709.64500000002),"(-4.075330155106, 51.78569997334361)",-4.075330155106,51.78569997334361,10
WPD Ground Mounted Substation,,33KV,,,,Ground Mounted,520286,KIDWELLY 33/11KV S/STN,INTERSECTS,POINT (242016.525 207376.19),"(-4.28966088917351, 51.742753626298764)",-4.28966088917351,51.742753626298764,10
WPD Ground Mounted Substation,,33KV,,,,Ground Mounted,590180,NANTGAREDIG 33/11KV S/STN,INTERSECTS,POINT (249221.5 220724.5),"(-4.191196580839605, 51.86466405301249)",-4.191196580839605,51.86466405301249,10
WPD Ground Mounted Substation,,33KV,,,,Ground Mounted,590180,NANTGAREDIG 33/11KV S/STN,INTERSECTS,POINT (249220 220724.5),"(-4.191211092553602, 51.86466378259425)",-4.191211092553602,51.86466378259425,10
WPD Ground Mounted Substation,,33KV,,,,Ground Mounted,590052,ABERAERON 33/11KV S/STN,INTERSECTS,POINT (245970.514 261846.037),"(-4.256918943420441, 52.23320294642883)",-4.256918943420441,52.23320294642883,10
WPD Ground Mounted Substation,,33KV,,,,Ground Mounted,520360,SWANSEA NORTH LOCAL 33KV/11KV S/STN,INTERSECTS,POINT (264312.25 200181.75),"(-3.9641407013814844, 51.68394739914251)",-3.9641407013814844,51.68394739914251,10
WPD Ground Mounted Substation,,33KV,,,,Ground Mounted,520360,SWANSEA NORTH LOCAL 33KV/11KV S/STN,INTERSECTS,POINT (264313.5 200181.75),"(-3.9641262454329302, 51.6839476409587)",-3.9641262454329302,51.6839476409587,10
WPD Ground Mounted Substation,,33KV,,,,Ground Mounted,520451,AFON LAN SOLAR PARK 33kV SW STN,INTERSECTS,POINT (266310.5 201187),"(-3.935643024733633, 51.6934669533986)",-3.935643024733633,51.6934669533986,10
WPD Ground Mounted Substation,,33KV,,,,Ground Mounted,520207,PONTARDAWE 33KV/11KV S/STN,INTERSECTS,POINT (272008.712 203783.483),"(-3.854205087197029, 51.718124928095726)",-3.854205087197029,51.718124928095726,10
WPD Ground Mounted Substation,,33KV,,,,Ground Mounted,520207,PONTARDAWE 33KV/11KV S/STN,INTERSECTS,POINT (272019.203 203775.44700000001),"(-3.8540430003175734, 51.71805554901919)",-3.8540430003175734,51.71805554901919,10
WPD Ground Mounted Substation,,33KV,,,,Ground Mounted,520041,TRAVELLERS REST 33/11KV S/STN,INTERSECTS,POINT (278903.446 208768.717),"(-3.7561821414843726, 51.7644569137904)",-3.7561821414843726,51.7644569137904,10
WPD Ground Mounted Substation,,33KV,,,,Ground Mounted,520041,TRAVELLERS REST 33/11KV S/STN,INTERSECTS,POINT (278891.407 208741.223),"(-3.7563465217734637, 51.76421167178303)",-3.7563465217734637,51.76421167178303,10
WPD Ground Mounted Substation,,33KV,,,,Ground Mounted,590170,MANORAVON PUMPING STN. 33KV SW STN,INTERSECTS,POINT (265762.253 223955.604),"(-3.9523862556459965, 51.897924899665284)",-3.9523862556459965,51.897924899665284,10
WPD Ground Mounted Substation,,33KV,,,,Ground Mounted,590444,YSTRADFFIN HYDRO GENERATION 33KV SW STN,INTERSECTS,POINT (277553.75 245896),"(-3.788958515504135, 52.0978117793144)",-3.788958515504135,52.0978117793144,10
WPD Ground Mounted Substation,,33KV,,,,Ground Mounted,550018,HIRWAUN 132/11KV S/STN,INTERSECTS,POINT (293935.75 205822.25),"(-3.537548874054413, 51.74103108763489)",-3.537548874054413,51.74103108763489,10
WPD Ground Mounted Substation,,33KV,,,,Ground Mounted,550018,HIRWAUN 132/11KV S/STN,INTERSECTS,POINT (293939.5 205822.25),"(-3.5374909642293795, 51.741031845482)",-3.5374909642293795,51.741031845482,10
WPD Ground Mounted Substation,,33KV,,,,Ground Mounted,550018,HIRWAUN 132/11KV S/STN,INTERSECTS,POINT (293936.5 205824),"(-3.5375350069671865, 51.74104925280073)",-3.5375350069671865,51.74104925280073,10
WPD Ground Mounted Substation,,33KV,,,,Ground Mounted,550018,HIRWAUN 132/11KV S/STN,INTERSECTS,POINT (293938.75 205824),"(-3.537506052043188, 51.74104963172453)",-3.537506052043188,51.74104963172453,10
WPD Ground Mounted Substation,,33KV,,,,Ground Mounted,560055,ABERPERGWM 33/11KV S/STN,INTERSECTS,POINT (286843.499 205759.698),"(-3.640198399109402, 51.739076362052906)",-3.640198399109402,51.739076362052906,10
WPD Ground Mounted Substation,,33KV,,,,Ground Mounted,560055,ABERPERGWM 33/11KV S/STN,INTERSECTS,POINT (286844.7 205759.698),"(-3.64018392299831, 51.73907656415554)",-3.64018392299831,51.73907656415554,10
WPD Ground Mounted Substation,,33KV,,,,Ground Mounted,550267,ABERDARE 33KV/11KV S/STN,INTERSECTS,POINT (299663.906 202603.233),"(-3.4536907586939356, 51.71315403870121)",-3.4536907586939356,51.71315403870121,10
WPD Ground Mounted Substation,,33KV,,,,Ground Mounted,550267,ABERDARE 33KV/11KV S/STN,INTERSECTS,POINT (299667.373 202615.402),"(-3.453636341263133, 51.7132626138101)",-3.453636341263133,51.7132626138101,10
WPD Ground Mounted Substation,,33KV,,,,Ground Mounted,550287,SWANSEA ROAD MERTHYR 33/11KV S/STN,INTERSECTS,POINT (303493.75 206846.5),"(-3.399450800170621, 51.751964677126715)",-3.399450800170621,51.751964677126715,10
WPD Ground Mounted Substation,,33KV,,,,Ground Mounted,550287,SWANSEA ROAD MERTHYR 33/11KV S/STN,INTERSECTS,POINT (303494.5 206846.5),"(-3.399436318323362, 51.75196484960604)",-3.399436318323362,51.75196484960604,10
WPD Ground Mounted Substation,,33KV,,,,Ground Mounted,550244,TREDEGAR 33KV/11KV S/STN,INTERSECTS,POINT (314421.9 208762.2),"(-3.241657379172959, 51.7709658428987)",-3.241657379172959,51.7709658428987,10
WPD Ground Mounted Substation,,33KV,,,,Ground Mounted,550244,TREDEGAR 33KV/11KV S/STN,INTERSECTS,POINT (314420.7 208762.2),"(-3.241671868021191, 51.77096568981898)",-3.241671868021191,51.77096568981898,10
WPD Ground Mounted Substation,,33KV,,,,Ground Mounted,550441,Beaufort Power Stor,INTERSECTS,POINT (314253.371 211763.075),"(-3.2448340035932994, 51.797915794358836)",-3.2448340035932994,51.797915794358836,10
WPD Ground Mounted Substation,,33KV,,,,Ground Mounted,550182,NANTWEN 33/11KV S/STN,INTERSECTS,POINT (309368.408 200932.86800000002),"(-3.3128262294586004, 51.699787753969375)",-3.3128262294586004,51.699787753969375,10
WPD Ground Mounted Substation,,33KV,,,,Ground Mounted,550416,BARGOED SOLAR PARK 33KV SW STN,INTERSECTS,POINT (309507.336 205505.527),"(-3.312005044620852, 51.74091583765605)",-3.312005044620852,51.74091583765605,10
WPD Ground Mounted Substation,,33KV,,,,Ground Mounted,550422,WAUN Y POUND STOR 33KV SW STN,INTERSECTS,POINT (315719.289 210478.098),"(-3.223267932173636, 51.78658812945132)",-3.223267932173636,51.78658812945132,10
WPD Ground Mounted Substation,,33KV,,,,Ground Mounted,550422,WAUN Y POUND STOR 33KV SW STN,INTERSECTS,POINT (315719.832 210477.844),"(-3.2232676889497327, 51.78657914048125)",-3.2232676889497327,51.78657914048125,10
WPD Ground Mounted Substation,,33KV,,,,Ground Mounted,745828,ROCK FARM ESS,INTERSECTS,POINT (353189.618 274707.828),"(-2.688940062200215, 52.368400133398644)",-2.688940062200215,52.368400133398644,10
WPD Ground Mounted Substation,,33KV,,,,Ground Mounted,745465,HENLEY SOLAR FARM,INTERSECTS,POINT (345739.11100000003 288515.61),"(-2.8005945002830783, 52.491833774616)",-2.8005945002830783,52.491833774616,10
WPD Ground Mounted Substation,,33KV,,,,Ground Mounted,790001,LYDNEY 33KV/11KV,INTERSECTS,POINT (363038.267 204365.296),"(-2.5366608077647754, 51.7367656143133)",-2.5366608077647754,51.7367656143133,10
WPD Ground Mounted Substation,,33KV,,,,Ground Mounted,,,INTERSECTS,POINT (363043.578 204368.081),"(-2.5365887239862905, 51.736792917175514)",-2.5365887239862905,51.736792917175514,10
WPD Ground Mounted Substation,,33KV,,,,Ground Mounted,795731,YORKLEY SOLAR FARM,INTERSECTS,POINT (363290.657 204941.47),"(-2.5330726405340758, 51.7419608746649)",-2.5330726405340758,51.7419608746649,10
WPD Ground Mounted Substation,,33KV,,,,Ground Mounted,795644,CAMBRIDGE SOLAR POWER 33KV,INTERSECTS,POINT (375234.829 204448.554),"(-2.3600567285373653, 51.73818599655135)",-2.3600567285373653,51.73818599655135,10
WPD Ground Mounted Substation,,33KV,,,,Ground Mounted,795870,EFW JAVELIN PARK,INTERSECTS,POINT (379911.442 210437.943),"(-2.292674768184566, 51.79222084767532)",-2.292674768184566,51.79222084767532,10
WPD Ground Mounted Substation,,33KV,,,,Ground Mounted,795669,HALL FARM PV AWRE 33KV,INTERSECTS,POINT (369358.418 208290.348),"(-2.445489170173058, 51.772436967127284)",-2.445489170173058,51.772436967127284,10
WPD Ground Mounted Substation,,33KV,,,,Ground Mounted,745501,HIGH POINT SOLAR PV 33KV,INTERSECTS,POINT (366607.635 270923.306),"(-2.4915009444290988, 52.33536750082243)",-2.4915009444290988,52.33536750082243,10
WPD Ground Mounted Substation,,33KV,,,,Ground Mounted,770004,STAR ALUMINIUM 33/11KV S/STN,INTERSECTS,POINT (372688.98600000003 292008.10000000003),"(-2.4039889376466124, 52.52525538689624)",-2.4039889376466124,52.52525538689624,10
WPD Ground Mounted Substation,,33KV,,,,Ground Mounted,,,INTERSECTS,POINT (372678.99 291989.858),"(-2.404134757600064, 52.52508407980077)",-2.404134757600064,52.52508407980077,10
WPD Ground Mounted Substation,,33KV,,,,Ground Mounted,,,INTERSECTS,POINT (372697.411 291999.663),"(-2.403855545386179, 52.52517493287614)",-2.403855545386179,52.52517493287614,10
WPD Ground Mounted Substation,,33KV,,,,Ground Mounted,670015,RYEFORD 132/33/11KV 33KV/11KV S/STN,INTERSECTS,POINT (381237.837 204468.094),"(-2.273124865291377, 51.73860017932923)",-2.273124865291377,51.73860017932923,10
WPD Ground Mounted Substation,,33KV,,,,Ground Mounted,795721,BRISTOL ROAD 33KV 33KV/LV S/STN,INTERSECTS,POINT (381985.83 215870.39),"(-2.262888416673793, 51.84113937265833)",-2.262888416673793,51.84113937265833,10
WPD Ground Mounted Substation,,33KV,,,,Ground Mounted,790007,COMMERCIAL RD. 33/11KV S/STN 33KV/11KV S,INTERSECTS,POINT (382859.985 218452.33000000002),"(-2.2503315319844437, 51.86438140070874)",-2.2503315319844437,51.86438140070874,10
WPD Ground Mounted Substation,,33KV,,,,Ground Mounted,790007,COMMERCIAL RD. 33/11KV S/STN 33KV/11KV S,INTERSECTS,POINT (382854.086 218455.236),"(-2.2504042924822136, 51.86440821848558)",-2.2504042924822136,51.86440821848558,10
WPD Ground Mounted Substation,,33KV,,,,Ground Mounted,670012,CASTLE MEADS 132/33KV 132KV/33KV S/STN,INTERSECTS,POINT (382388.362 218766.396),"(-2.257187562056328, 51.867189748065016)",-2.257187562056328,51.867189748065016,10
WPD Ground Mounted Substation,,33KV,,,,Ground Mounted,670012,CASTLE MEADS 132/33KV 132KV/33KV S/STN,INTERSECTS,POINT (382390.572 218772.019),"(-2.257158823979205, 51.8672437564587)",-2.257158823979205,51.8672437564587,10
WPD Ground Mounted Substation,,33KV,,,,Ground Mounted,670012,CASTLE MEADS 132/33KV 132KV/33KV S/STN,INTERSECTS,POINT (382419.78500000003 218807.271),"(-2.2567394495427506, 51.86755935539287)",-2.2567394495427506,51.86755935539287,10
WPD Ground Mounted Substation,,33KV,,,,Ground Mounted,791034,STADCO 33KV/11KV S/STN,INTERSECTS,POINT (388456.064 216227.494),"(-2.16897582467344, 51.84452173665928)",-2.16897582467344,51.84452173665928,10
WPD Ground Mounted Substation,,33KV,,,,Ground Mounted,670063,KIDDERMINSTER 132/33/11KV,INTERSECTS,POINT (382994.605 276075.165),"(-2.251270804623122, 52.38244045639479)",-2.251270804623122,52.38244045639479,10
WPD Ground Mounted Substation,,33KV,,,,Ground Mounted,736099,WOLVERHAMPTON POWER 33KV,INTERSECTS,POINT (392756.68 298283.34500000003),"(-2.108342057997656, 52.58230717667207)",-2.108342057997656,52.58230717667207,10
WPD Ground Mounted Substation,,33KV,,,,Ground Mounted,726003,BLOXWICH ESS 33KV 33KV/11KV S/STN,INTERSECTS,POINT (399468.537 299057.958),"(-2.0092854851869375, 52.58931469151584)",-2.0092854851869375,52.58931469151584,10
WPD Ground Mounted Substation,,33KV,,,,Ground Mounted,939305,JAGUAR LAND ROVER,INTERSECTS,POINT (435811.674 255172.949),"(-1.4775260268591415, 52.1936293709529)",-1.4775260268591415,52.1936293709529,10
WPD Ground Mounted Substation,,33KV,,,,Ground Mounted,939305,JAGUAR LAND ROVER,INTERSECTS,POINT (435798.601 255162.51200000002),"(-1.4777172529159677, 52.19354031217871)",-1.4777172529159677,52.19354031217871,10
WPD Ground Mounted Substation,,33KV,,,,Ground Mounted,690010,HARBURY 132KV S/STN 132KV/33KV S/STN,INTERSECTS,POINT (438964.335 258916.775),"(-1.4309723807829513, 52.227074524471924)",-1.4309723807829513,52.227074524471924,10
WPD Ground Mounted Substation,,33KV,,,,Ground Mounted,690010,HARBURY 132KV S/STN 132KV/33KV S/STN,INTERSECTS,POINT (438980.63300000003 258912.635),"(-1.4307386073945034, 52.22703743596418)",-1.4307386073945034,52.22703743596418,10
WPD Ground Mounted Substation,,33KV,,,,Ground Mounted,930030,TORRINGTON AVENUE 33KV/11KV S/STN,INTERSECTS,POINT (429251.981 277992.129),"(-1.571517313558715, 52.39916657654839)",-1.571517313558715,52.39916657654839,10
WPD Ground Mounted Substation,,33KV,,,,Ground Mounted,930030,TORRINGTON AVENUE 33KV/11KV S/STN,INTERSECTS,POINT (429244.241 277990.641),"(-1.5716203649404956, 52.3991489694723)",-1.5716203649404956,52.3991489694723,10
WPD Ground Mounted Substation,,33KV,,,,Ground Mounted,939735,WELSH ROAD BASCOTE,INTERSECTS,POINT (438553.355 263677.36100000003),"(-1.4364474421990643, 52.26990417218007)",-1.4364474421990643,52.26990417218007,10
WPD Ground Mounted Substation,,33KV,,,,Ground Mounted,939735,WELSH ROAD BASCOTE,INTERSECTS,POINT (438553.37700000004 263696.799),"(-1.4364452772642229, 52.270074979225065)",-1.4364452772642229,52.270074979225065,10
WPD Ground Mounted Substation,,33KV,,,,Ground Mounted,930049,RYTON 33/11KV S/STN,INTERSECTS,POINT (437656.276 274501.574),"(-1.4483838371882747, 52.36727162078826)",-1.4483838371882747,52.36727162078826,10
WPD Ground Mounted Substation,,33KV,,,,Ground Mounted,930037,HOLYHEAD ROAD 33KV/11KV S/STN,INTERSECTS,POINT (431145.743 279990.609),"(-1.5434964431995932, 52.41702406282087)",-1.5434964431995932,52.41702406282087,10
WPD Ground Mounted Substation,,33KV,,,,Ground Mounted,930037,HOLYHEAD ROAD 33KV/11KV S/STN,INTERSECTS,POINT (431154.395 279987.604),"(-1.5433643977939926, 52.41699658287555)",-1.5433643977939926,52.41699658287555,10
WPD Ground Mounted Substation,,33KV,,,,Ground Mounted,930053,CAMPION HILLS 33KV/11KV S/STN,INTERSECTS,POINT (433092.145 266592.288),"(-1.5161868865820523, 52.296464467633626)",-1.5161868865820523,52.296464467633626,10
WPD Ground Mounted Substation,,33KV,,,,Ground Mounted,930014,COVENTRY WEST 33KV/11KV S/STN,INTERSECTS,POINT (426990.123 278257.17100000003),"(-1.6047255445627362, 52.40166458047766)",-1.6047255445627362,52.40166458047766,10
WPD Ground Mounted Substation,,33KV,,,,Ground Mounted,930014,COVENTRY WEST 33KV/11KV S/STN,INTERSECTS,POINT (426967.572 278258.109),"(-1.6050635105025945, 52.40167469930269)",-1.6050635105025945,52.40167469930269,10
WPD Ground Mounted Substation,,33KV,,,,Ground Mounted,930034,UNIVERSITY OF WARWICK 33KV/11KV S/STN,INTERSECTS,POINT (429711.61 276273.362),"(-1.5649086960619778, 52.38368837132977)",-1.5649086960619778,52.38368837132977,10
WPD Ground Mounted Substation,,33KV,,,,Ground Mounted,930034,UNIVERSITY OF WARWICK 33KV/11KV S/STN,INTERSECTS,POINT (429723.31200000003 276283.184),"(-1.5647315131346855, 52.383777621138016)",-1.5647315131346855,52.383777621138016,10
WPD Ground Mounted Substation,,33KV,,,,Ground Mounted,930056,LOCKHEED 33KV/11KV S/STN,INTERSECTS,POINT (431462.572 263842.552),"(-1.5403428042781075, 52.27183748407548)",-1.5403428042781075,52.27183748407548,10
WPD Ground Mounted Substation,,33KV,,,,Ground Mounted,930056,LOCKHEED 33KV/11KV S/STN,INTERSECTS,POINT (431462.036 263850.304),"(-1.5403420608035445, 52.271909403973304)",-1.5403420608035445,52.271909403973304,10
WPD Ground Mounted Substation,,33KV,,,,Ground Mounted,930087,TOURNAMENT FIELDS 33/11KV S STN 33KV/11K,INTERSECTS,POINT (426637.43200000003 263082.599),"(-1.6111113438141416, 52.26525893844411)",-1.6111113438141416,52.26525893844411,10
WPD Ground Mounted Substation,,33KV,,,,Ground Mounted,930087,TOURNAMENT FIELDS 33/11KV S STN 33KV/11K,INTERSECTS,POINT (426625.867 263088.631),"(-1.6112867027355786, 52.265313457489476)",-1.6112867027355786,52.265313457489476,10
WPD Ground Mounted Substation,,33KV,,,,Ground Mounted,930041,SPON STREET 33/6.6KV S/STN 33KV/6.6KV S/,INTERSECTS,POINT (432893.349 279066.983),"(-1.5178868268871735, 52.40861558493821)",-1.5178868268871735,52.40861558493821,10
WPD Ground Mounted Substation,,33KV,,,,Ground Mounted,930041,SPON STREET 33/6.6KV S/STN 33KV/6.6KV S/,INTERSECTS,POINT (432897.316 279071.92),"(-1.5178275378432435, 52.40866029403889)",-1.5178275378432435,52.40866029403889,10
WPD Ground Mounted Substation,,33KV,,,,Ground Mounted,930043,GULSON ROAD 33/6.6KV S/STN,INTERSECTS,POINT (434725.525 278939.663),"(-1.4909700207949297, 52.40736107492339)",-1.4909700207949297,52.40736107492339,10
WPD Ground Mounted Substation,,33KV,,,,Ground Mounted,930043,GULSON ROAD 33/6.6KV S/STN,INTERSECTS,POINT (434719.597 278943.298),"(-1.4910578030917596, 52.40739741326195)",-1.4910578030917596,52.40739741326195,10
WPD Ground Mounted Substation,,33KV,,,,Ground Mounted,930042,DILLOTFORD AVE 33KV/11KV S/STN,INTERSECTS,POINT (433665.652 276797.229),"(-1.5067659641206503, 52.388171050565454)",-1.5067659641206503,52.388171050565454,10
WPD Ground Mounted Substation,,33KV,,,,Ground Mounted,930042,DILLOTFORD AVE 33KV/11KV S/STN,INTERSECTS,POINT (433659.315 276803.556),"(-1.506853521245984, 52.38822535676252)",-1.506853521245984,52.38822535676252,10
WPD Ground Mounted Substation,,33KV,,,,Ground Mounted,930027,LONDON ROAD 33KV/6.6KV S/STN,INTERSECTS,POINT (433994.77400000003 278443.371),"(-1.5017654483126384, 52.40294791691996)",-1.5017654483126384,52.40294791691996,10
WPD Ground Mounted Substation,,33KV,,,,Ground Mounted,930027,LONDON ROAD 33KV/6.6KV S/STN,INTERSECTS,POINT (433986.153 278443.417),"(-1.5018830313452753, 52.4029484121148)",-1.5018830313452753,52.4029484121148,10
WPD Ground Mounted Substation,,33KV,,,,Ground Mounted,,,INTERSECTS,POINT (435197.858 276103.754),"(-1.4843290398537339, 52.38183615839029)",-1.4843290398537339,52.38183615839029,10
WPD Ground Mounted Substation,,33KV,,,,Ground Mounted,,,INTERSECTS,POINT (435194.648 276089.484),"(-1.484374577717816, 52.38171049413374)",-1.484374577717816,52.38171049413374,10
WPD Ground Mounted Substation,,33KV,,,,Ground Mounted,930054,WISE STREET 33KV/11KV S/STN,INTERSECTS,POINT (431967.329 265110.191),"(-1.5328224791390117, 52.283207742287715)",-1.5328224791390117,52.283207742287715,10
WPD Ground Mounted Substation,,33KV,,,,Ground Mounted,930008,WHITLEY 33KV S/STN,INTERSECTS,POINT (435276.092 277369.59),"(-1.4830355978900946, 52.39321209484391)",-1.4830355978900946,52.39321209484391,10
WPD Ground Mounted Substation,,33KV,,,,Ground Mounted,930008,WHITLEY 33KV S/STN,INTERSECTS,POINT (435268.159 277383.507),"(-1.4831516852457185, 52.393338464746066)",-1.4831516852457185,52.393338464746066,10
WPD Ground Mounted Substation,,33KV,,,,Ground Mounted,930044,COPSEWOOD 33/11KV S/STN,INTERSECTS,POINT (436559.12200000003 278451.141),"(-1.4640646980207974, 52.402855033339534)",-1.4640646980207974,52.402855033339534,10
WPD Ground Mounted Substation,,33KV,,,,Ground Mounted,930044,COPSEWOOD 33/11KV S/STN,INTERSECTS,POINT (436560.848 278442.358),"(-1.4640509801808814, 52.40277405960191)",-1.4640509801808814,52.40277405960191,10
WPD Ground Mounted Substation,,33KV,,,,Ground Mounted,930076,ATHERSTONE 33/11kv S Stn,INTERSECTS,POINT (430633.904 298650.752),"(-1.5493130712647931, 52.58479971513721)",-1.5493130712647931,52.58479971513721,10
WPD Ground Mounted Substation,,33KV,,,,Ground Mounted,930076,ATHERSTONE 33/11kv S Stn,INTERSECTS,POINT (430636.306 298650.75),"(-1.5492687950581934, 52.584799546737024)",-1.5492687950581934,52.584799546737024,10
WPD Ground Mounted Substation,,33KV,,,,Ground Mounted,930073,WOOD END 33KV/11KV S/STN,INTERSECTS,POINT (425177.572 298302.661),"(-1.629863749587893, 52.58195020520205)",-1.629863749587893,52.58195020520205,10
WPD Ground Mounted Substation,,33KV,,,,Ground Mounted,930073,WOOD END 33KV/11KV S/STN,INTERSECTS,POINT (425159.891 298302.815),"(-1.6301293922847877, 52.58195103454271)",-1.6301293922847877,52.58195103454271,10
WPD Ground Mounted Substation,,33KV,,,,Ground Mounted,930047,WALSGRAVE 33KV/11KV S/STN,INTERSECTS,POINT (437734.386 280955.591),"(-1.4465132661191575, 52.42528558215792)",-1.4465132661191575,52.42528558215792,10
WPD Ground Mounted Substation,,33KV,,,,Ground Mounted,930047,WALSGRAVE 33KV/11KV S/STN,INTERSECTS,POINT (437738.105 280934.256),"(-1.4464568088999388, 52.42509652489676)",-1.4464568088999388,52.42509652489676,10
WPD Ground Mounted Substation,,33KV,,,,Ground Mounted,930033,COURTHOUSE GREEN PRIMARY 33/11KV S/STN,INTERSECTS,POINT (435171.134 281475.879),"(-1.4841482842381122, 52.43013052980547)",-1.4841482842381122,52.43013052980547,10
WPD Ground Mounted Substation,,33KV,,,,Ground Mounted,930033,COURTHOUSE GREEN PRIMARY 33/11KV S/STN,INTERSECTS,POINT (435172.417 281470.186),"(-1.48413410186594, 52.43008551733592)",-1.48413410186594,52.43008551733592,10
WPD Ground Mounted Substation,,33KV,,,,Ground Mounted,930033,COURTHOUSE GREEN PRIMARY 33/11KV S/STN,INTERSECTS,POINT (435179.088 281465.328),"(-1.4840316784295058, 52.430040120091626)",-1.4840316784295058,52.430040120091626,10
WPD Ground Mounted Substation,,33KV,,,,Ground Mounted,930081,LANGDALE DRIVE 33KV/11KV S/STN,INTERSECTS,POINT (438327.346 292599.737),"(-1.436457990789512, 52.52991852489265)",-1.436457990789512,52.52991852489265,10
WPD Ground Mounted Substation,,33KV,,,,Ground Mounted,930081,LANGDALE DRIVE 33KV/11KV S/STN,INTERSECTS,POINT (438329.629 292584.031),"(-1.4364302359393495, 52.52978354290308)",-1.4364302359393495,52.52978354290308,10
WPD Ground Mounted Substation,,33KV,,,,Ground Mounted,939800,BIRCH COPPICE 33/11KV 33KV/11KV S/STN,INTERSECTS,POINT (425540.909 299392.068),"(-1.6244229300857582, 52.591732018562446)",-1.6244229300857582,52.591732018562446,10
WPD Ground Mounted Substation,,33KV,,,,Ground Mounted,939800,BIRCH COPPICE 33/11KV 33KV/11KV S/STN,INTERSECTS,POINT (425540.951 299404.099),"(-1.6244220084089795, 52.59183989368832)",-1.6244220084089795,52.59183989368832,10
WPD Ground Mounted Substation,,33KV,,,,Ground Mounted,930029,JAGUAR CARS BROWNS LANE 33/11KV S/STN,INTERSECTS,POINT (430298.229 282297.972),"(-1.5557412742058174, 52.437810852068424)",-1.5557412742058174,52.437810852068424,10
WPD Ground Mounted Substation,,33KV,,,,Ground Mounted,930029,JAGUAR CARS BROWNS LANE 33/11KV S/STN,INTERSECTS,POINT (430299.315 282298.189),"(-1.5557264742549233, 52.43781978659746)",-1.5557264742549233,52.43781978659746,10
WPD Ground Mounted Substation,,33KV,,,,Ground Mounted,930083,COVENTRY ARENA 33/11KV S/STN,INTERSECTS,POINT (434534.428 283642.776),"(-1.4932932645119972, 52.44965161310335)",-1.4932932645119972,52.44965161310335,10
WPD Ground Mounted Substation,,33KV,,,,Ground Mounted,930083,COVENTRY ARENA 33/11KV S/STN,INTERSECTS,POINT (434544.64400000003 283638.126),"(-1.493146543065752, 52.44961502441293)",-1.493146543065752,52.44961502441293,10
WPD Ground Mounted Substation,,33KV,,,,Ground Mounted,930039,DUNLOP 33/6.6KV S/STN,INTERSECTS,POINT (433255.972 282247.83400000003),"(-1.5122501923704634, 52.43719007713063)",-1.5122501923704634,52.43719007713063,10
WPD Ground Mounted Substation,,33KV,,,,Ground Mounted,930039,DUNLOP 33/6.6KV S/STN,INTERSECTS,POINT (433240.701 282247.642),"(-1.5124708317622155, 52.437190986386625)",-1.5124708317622155,52.437190986386625,10
WPD Ground Mounted Substation,,33KV,,,,Ground Mounted,930038,HOLBROOK LANE 33KV/6.6KV S/STN,INTERSECTS,POINT (433588.477 282054.722),"(-1.5073713391426224, 52.435434775022635)",-1.5073713391426224,52.435434775022635,10
WPD Ground Mounted Substation,,33KV,,,,Ground Mounted,930038,HOLBROOK LANE 33KV/6.6KV S/STN,INTERSECTS,POINT (433588.903 282038.025),"(-1.5073729422232118, 52.435290939921416)",-1.5073729422232118,52.435290939921416,10
WPD Ground Mounted Substation,,33KV,,,,Ground Mounted,939062,WOOD LANE 33/11KV 33KV/11KV S/STN,INTERSECTS,POINT (436848.246 295082.309),"(-1.457983917024793, 52.55234109373757)",-1.457983917024793,52.55234109373757,10
WPD Ground Mounted Substation,,33KV,,,,Ground Mounted,939062,WOOD LANE 33/11KV 33KV/11KV S/STN,INTERSECTS,POINT (436855.762 295072.56),"(-1.4578817908427903, 52.55225072686578)",-1.4578817908427903,52.55225072686578,10
WPD Ground Mounted Substation,,33KV,,,,Ground Mounted,930069,COTON ROAD 33KV/11KV S/STN,INTERSECTS,POINT (436272.131 291622.527),"(-1.4668552690994818, 52.5212760533355)",-1.4668552690994818,52.5212760533355,10
WPD Ground Mounted Substation,,33KV,,,,Ground Mounted,930069,COTON ROAD 33KV/11KV S/STN,INTERSECTS,POINT (436278.303 291627.398),"(-1.4667663016016472, 52.52132060272654)",-1.4667663016016472,52.52132060272654,10
WPD Ground Mounted Substation,,33KV,,,,Ground Mounted,930040,SANDY LANE 33KV/6.6KV S/STN,INTERSECTS,POINT (433294.66500000004 280055.38),"(-1.5118941205663272, 52.41748226234466)",-1.5118941205663272,52.41748226234466,10
WPD Ground Mounted Substation,,33KV,,,,Ground Mounted,930026,COURTAULDS 33KV/6.6KV S/STN,INTERSECTS,POINT (433747.887 280860.48600000003),"(-1.5051528176677684, 52.42469131491364)",-1.5051528176677684,52.42469131491364,10
WPD Ground Mounted Substation,,33KV,,,,Ground Mounted,930074,WHITTLEFORD 33KV/11KV S/STN,INTERSECTS,POINT (433004.97000000003 292179.896),"(-1.5149618011318167, 52.526490277984934)",-1.5149618011318167,52.526490277984934,10
WPD Ground Mounted Substation,,33KV,,,,Ground Mounted,930086,CHURCHOVER 33KV/11KV S/STN,INTERSECTS,POINT (449541.936 279944.157),"(-1.2730432514432954, 52.41525765433411)",-1.2730432514432954,52.41525765433411,10
WPD Ground Mounted Substation,,33KV,,,,Ground Mounted,930086,CHURCHOVER 33KV/11KV S/STN,INTERSECTS,POINT (449553.201 279940.877),"(-1.2728674265449231, 52.415220612618604)",-1.2728674265449231,52.415220612618604,10
WPD Ground Mounted Substation,,33KV,,,,Ground Mounted,940048,WELTON 33KV/11KV S/STN,INTERSECTS,POINT (459461.958 267786.82300000003),"(-1.129360112965159, 52.30498192149045)",-1.129360112965159,52.30498192149045,10
WPD Ground Mounted Substation,,33KV,,,,Ground Mounted,946165,LILBOURNE WIND FARM,INTERSECTS,POINT (456637.646 277250.552),"(-1.1691794708191605, 52.390353767901125)",-1.1691794708191605,52.390353767901125,10
WPD Ground Mounted Substation,,33KV,,,,Ground Mounted,930055,LAWFORD 33/11KV S/STN,INTERSECTS,POINT (448542.82 275496.844),"(-1.2883731661166538, 52.37536218578742)",-1.2883731661166538,52.37536218578742,10
WPD Ground Mounted Substation,,33KV,,,,Ground Mounted,930055,LAWFORD 33/11KV S/STN,INTERSECTS,POINT (448536.161 275491.082),"(-1.2884620170890206, 52.37531776904144)",-1.2884620170890206,52.37531776904144,10
WPD Ground Mounted Substation,,33KV,,,,Ground Mounted,946091,YELVERTOFT WIND FARM,INTERSECTS,POINT (457750.96 274721.726),"(-1.1532613842290418, 52.36750422833283)",-1.1532613842290418,52.36750422833283,10
WPD Ground Mounted Substation,,33KV,,,,Ground Mounted,940047,BRAUNSTON ROAD 33KV/11KV S/STN,INTERSECTS,POINT (456386.913 262840.96),"(-1.175278849524082, 52.26084438888912)",-1.175278849524082,52.26084438888912,10
WPD Ground Mounted Substation,,33KV,,,,Ground Mounted,940047,BRAUNSTON ROAD 33KV/11KV S/STN,INTERSECTS,POINT (456398.15 262850.886),"(-1.1751013833427737, 52.260933054783386)",-1.1751013833427737,52.260933054783386,10
WPD Ground Mounted Substation,,33KV,,,,Ground Mounted,940068,CRICK 33KV/11KV S/STN,INTERSECTS,POINT (456985.61 272984.056),"(-1.1647898524964913, 52.35196994114275)",-1.1647898524964913,52.35196994114275,10
WPD Ground Mounted Substation,,33KV,,,,Ground Mounted,940068,CRICK 33KV/11KV S/STN,INTERSECTS,POINT (456983.79000000004 272975.817),"(-1.164820736881872, 52.35188924580601)",-1.164820736881872,52.35188924580601,10
WPD Ground Mounted Substation,,33KV,,,,Ground Mounted,940068,CRICK 33KV/11KV S/STN,INTERSECTS,POINT (456971.887 272982.464),"(-1.1649957106248559, 52.35195341473266)",-1.1649957106248559,52.35195341473266,10
WPD Ground Mounted Substation,,33KV,,,,Ground Mounted,930063,ENGLISH ELECTRIC 33/11KV S/STN 33KV/11KV,INTERSECTS,POINT (449769.609 276044.38300000003),"(-1.2702697031746624, 52.38017852616325)",-1.2702697031746624,52.38017852616325,10
WPD Ground Mounted Substation,,33KV,,,,Ground Mounted,930063,ENGLISH ELECTRIC 33/11KV S/STN 33KV/11KV,INTERSECTS,POINT (449769.26300000004 276055.146),"(-1.2702680735861036, 52.380277409355855)",-1.2702680735861036,52.380277409355855,10
WPD Ground Mounted Substation,,33KV,,,,Ground Mounted,930065,UNION STREET 33KV/11KV S/STN,INTERSECTS,POINT (450082.88 274767.602),"(-1.2658621447967102, 52.368670621531784)",-1.2658621447967102,52.368670621531784,10
WPD Ground Mounted Substation,,33KV,,,,Ground Mounted,930065,UNION STREET 33KV/11KV S/STN,INTERSECTS,POINT (450098.37200000003 274762.033),"(-1.265627916345248, 52.36862421529737)",-1.265627916345248,52.36862421529737,10
WPD Ground Mounted Substation,,33KV,,,,Ground Mounted,930064,RUGBY 11KV S/STN,INTERSECTS,POINT (450358.492 276922.003),"(-1.2614858513040044, 52.38801746862651)",-1.2614858513040044,52.38801746862651,10
WPD Ground Mounted Substation,,33KV,,,,Ground Mounted,930064,RUGBY 11KV S/STN,INTERSECTS,POINT (450356.568 276916.946),"(-1.261516135595987, 52.38796371602926)",-1.261516135595987,52.38796371602926,10
WPD Ground Mounted Substation,,33KV,,,,Ground Mounted,930066,BROWNSOVER 33KV/11KV S/STN,INTERSECTS,POINT (450782.346 276768.574),"(-1.2552796319700712, 52.38659404067456)",-1.2552796319700712,52.38659404067456,10
WPD Ground Mounted Substation,,33KV,,,,Ground Mounted,930066,BROWNSOVER 33KV/11KV S/STN,INTERSECTS,POINT (450780.24100000004 276757.27),"(-1.25531067887523, 52.38649534297259)",-1.25531067887523,52.38649534297259,10
WPD Ground Mounted Substation,,33KV,,,,Ground Mounted,930067,HILLMORTON 33KV/11KV S/STN,INTERSECTS,POINT (453173.25 274596.002),"(-1.220495617342992, 52.36684286437062)",-1.220495617342992,52.36684286437062,10
WPD Ground Mounted Substation,,33KV,,,,Ground Mounted,930067,HILLMORTON 33KV/11KV S/STN,INTERSECTS,POINT (453187.917 274584.891),"(-1.220291924704693, 52.366733637056576)",-1.220291924704693,52.366733637056576,10
WPD Ground Mounted Substation,,33KV,,,,Ground Mounted,930107,MAGNA PARK 33KV/11KV S/STN,INTERSECTS,POINT (451044.91500000004 283736.428),"(-1.250369275618293, 52.4492070684198)",-1.250369275618293,52.4492070684198,10
WPD Ground Mounted Substation,,33KV,,,,Ground Mounted,930096,WHETSTONE 33/11KV S/STN 33KV/11KV S/STN,INTERSECTS,POINT (455342.26300000004 296965.136),"(-1.1849392165632098, 52.567705102307166)",-1.1849392165632098,52.567705102307166,10
WPD Ground Mounted Substation,,33KV,,,,Ground Mounted,930096,WHETSTONE 33/11KV S/STN 33KV/11KV S/STN,INTERSECTS,POINT (455340.141 296954.358),"(-1.184970552961508, 52.56760642727608)",-1.184970552961508,52.56760642727608,10
WPD Ground Mounted Substation,,33KV,,,,Ground Mounted,930095,ALLIANCE AND LEICESTER 33KV/11KV S/STN,INTERSECTS,POINT (453823.71400000004 298651.43700000003),"(-1.2070742648322461, 52.58301255158099)",-1.2070742648322461,52.58301255158099,10
WPD Ground Mounted Substation,,33KV,,,,Ground Mounted,930095,ALLIANCE AND LEICESTER 33KV/11KV S/STN,INTERSECTS,POINT (453824.494 298641.849),"(-1.2070611292761884, 52.58292256341313)",-1.2070611292761884,52.58292256341313,10
WPD Ground Mounted Substation,,33KV,,,,Ground Mounted,930088,MIDDLEFIELD 33/11KV S/STN,INTERSECTS,POINT (442515.299 295527.71),"(-1.3743531599389043, 52.555929416448144)",-1.3743531599389043,52.555929416448144,10
WPD Ground Mounted Substation,,33KV,,,,Ground Mounted,930061,ANSTY 33/11KV S/STN,INTERSECTS,POINT (440851.166 281497.945),"(-1.4006114708941557, 52.429934597400944)",-1.4006114708941557,52.429934597400944,10
WPD Ground Mounted Substation,,33KV,,,,Ground Mounted,930061,ANSTY 33/11KV S/STN,INTERSECTS,POINT (440864.778 281500.776),"(-1.400419919238836, 52.42996059726646)",-1.400419919238836,52.42996059726646,10
WPD Ground Mounted Substation,,33KV,,,,Ground Mounted,940014,Steeple Claydon 33 11kv S Stn,INTERSECTS,POINT (469455.569 226113.116),"(-0.9912995617437028, 51.929207922063085)",-0.9912995617437028,51.929207922063085,10
WPD Ground Mounted Substation,,33KV,,,,Ground Mounted,940014,Steeple Claydon 33 11kv S Stn,INTERSECTS,POINT (469455.333 226112.576),"(-0.9912997632420981, 51.929198932654536)",-0.9912997632420981,51.929198932654536,10
WPD Ground Mounted Substation,,33KV,,,,Ground Mounted,946154,GAWCOTT FIELDS SOLAR PARK 33KV/11KV S/ST,INTERSECTS,POINT (468659.289 232465.16700000002),"(-1.0016068263237647, 51.98640714484958)",-1.0016068263237647,51.98640714484958,10
WPD Ground Mounted Substation,,33KV,,,,Ground Mounted,945726,TURWESTON AIRFIELD SOLAR FARM 33KV/11KV,INTERSECTS,POINT (461038.02900000004 238732.727),"(-1.1114524221597881, 52.04363301043692)",-1.1114524221597881,52.04363301043692,10
WPD Ground Mounted Substation,,33KV,,,,Ground Mounted,945510,BEACHAMPTON SOLAR FARM PV 33KV,INTERSECTS,POINT (477958.39400000003 236097.1),"(-0.8653979403665611, 52.01782971992734)",-0.8653979403665611,52.01782971992734,10
WPD Ground Mounted Substation,,33KV,,,,Ground Mounted,946271,THORNBOROUGH GROUNDS PV 33KV/11KV S/STN,INTERSECTS,POINT (473692.663 234766.296),"(-0.9278364443244006, 52.00644730282264)",-0.9278364443244006,52.00644730282264,10
WPD Ground Mounted Substation,,33KV,,,,Ground Mounted,946174,MOUNT MILL SOLAR PARK 33KV/11KV S/STN,INTERSECTS,POINT (475654.385 238576),"(-0.8984179513990251, 52.04043185931581)",-0.8984179513990251,52.04043185931581,10
WPD Ground Mounted Substation,,33KV,,,,Ground Mounted,946139,HARTWELL ROAD 33KV 33KV/11KV S/STN,INTERSECTS,POINT (479179.352 249014.443),"(-0.8446161002744337, 52.13376481223765)",-0.8446161002744337,52.13376481223765,10
WPD Ground Mounted Substation,,33KV,,,,Ground Mounted,940062,WOOTTON 33KV/11KV S/STN,INTERSECTS,POINT (477026.068 256948.901),"(-0.8742663780535721, 52.20538501386038)",-0.8742663780535721,52.20538501386038,10
WPD Ground Mounted Substation,,33KV,,,,Ground Mounted,940062,WOOTTON 33KV/11KV S/STN,INTERSECTS,POINT (477032.169 256963.24300000002),"(-0.8741751889148374, 52.20551900620864)",-0.8741751889148374,52.20551900620864,10
WPD Ground Mounted Substation,,33KV,,,,Ground Mounted,940058,BANBURY LANE 33KV/11KV S/STN,INTERSECTS,POINT (472120.403 257960.659),"(-0.9458289491522945, 52.2151444928504)",-0.9458289491522945,52.2151444928504,10
WPD Ground Mounted Substation,,33KV,,,,Ground Mounted,946176,HOMESTEAD SOLAR PARK 33KV/11KV S/STN,INTERSECTS,POINT (474012.336 245757.434),"(-0.920797784669829, 52.10520306932542)",-0.920797784669829,52.10520306932542,10
WPD Ground Mounted Substation,,33KV,,,,Ground Mounted,940021,PINEHAM 33KV/11KV S/STN,INTERSECTS,POINT (471311.468 258206.116),"(-0.9576160471339699, 52.21746088738261)",-0.9576160471339699,52.21746088738261,10
WPD Ground Mounted Substation,,33KV,,,,Ground Mounted,945674,ROADE WIND FARM 33KV S/STN,INTERSECTS,POINT (477947.727 252264.286),"(-0.8618671455882596, 52.16315296298868)",-0.8618671455882596,52.16315296298868,10
WPD Ground Mounted Substation,,33KV,,,,Ground Mounted,940050,WEEDON 33/11KV S/STN 33KV/11KV S/STN,INTERSECTS,POINT (462829.722 260019.442),"(-1.0814152442024971, 52.23478914083209)",-1.0814152442024971,52.23478914083209,10
WPD Ground Mounted Substation,,33KV,,,,Ground Mounted,940059,CAMPBELL STREET 33KV/11KV S/STN,INTERSECTS,POINT (475427.44800000003 261104.117),"(-0.8967351088318775, 52.24296278958268)",-0.8967351088318775,52.24296278958268,10
